Time [LST],"Temperature [ITS-90, deg C]","Salinity, Practical [PSU]","Depth [salt water, m], lat = 33.00","Beam Transmission, Chelsea/Seatech/WET Labs CStar [%]","Density [sigma-t, Kg/m^3 ]",Altimeter [m],"Oxygen, SBE 43 [ml/l]",Conductivity [S/m],Heading [deg],Pitching [deg],Rolling [deg]
7:43:19,26.2808,35.0236,7.394,80.7315,22.9633,42.03,2.11741,5.444894,277.8117448,-4.9464,7.2324
7:43:20,26.2783,35.026,7.282,80.7315,22.9658,1.59,2.10353,5.444953,276.4654184,-4.8996,7.1856
7:43:21,26.2494,35.0489,7.215,80.7315,22.9922,1.64,2.09021,5.445071,276.2164054,-4.77,6.8364
7:43:22,26.2057,35.0832,7.223,80.7803,23.0318,2.2,2.08118,5.445215,276.4654184,-4.77,7.2324
7:43:23,26.227,35.0681,7.26,80.7559,23.0137,2.03,2.07427,5.445366,276.2164054,-5.2092,7.056
7:43:24,26.2571,35.0448,7.29,80.7071,22.9867,1.64,2.08807,5.445324,263.5345816,-5.9112,7.056
7:43:25,26.268,35.037,7.349,80.5851,22.9774,47.03,2.09778,5.445399,262.1882552,-5.5152,7.8444
7:43:26,26.28,35.0287,7.454,80.6095,22.9674,25.74,2.07718,5.445508,258.5101479,-4.8132,8.2404
7:43:27,26.2689,35.0403,7.498,80.6827,22.9796,81,2.07192,5.445954,252.4777302,-5.2524,8.856
7:43:28,26.2719,35.0379,7.364,80.6583,22.9769,1.39,2.2089,5.445929,248.7677332,-4.8996,9.0324
7:43:29,26.2798,35.0312,7.111,80.7071,22.9693,1.39,2.36604,5.445819,247.7832369,-4.284,9.9576
7:43:30,26.2805,35.0294,6.939,80.6827,22.9678,1.44,2.51245,5.445651,249.7117396,-4.1976,10.0872
7:43:31,26.2755,35.0332,7.028,80.7315,22.9722,1.51,2.60001,5.445634,251.9303194,-6.1776,10.0872
7:43:32,26.281,35.0299,7.267,80.7803,22.968,1.47,2.60983,5.445769,255.7521161,-6.3504,9.738
7:43:33,26.2787,35.0302,7.401,80.7559,22.969,64.49,2.61045,5.445584,256.2157948,-7.1424,8.9892
7:43:34,26.2849,35.0258,7.326,80.7071,22.9637,42.27,2.61322,5.445626,255.6407986,-7.0992,9.5616
7:43:35,26.2856,35.0257,7.184,80.7071,22.9634,83.98,2.59528,5.445685,253.9291257,-7.0992,10.4832
7:43:36,26.2799,35.0308,7.161,80.7071,22.969,22.88,2.56165,5.445777,254.5449904,-6.7896,10.1772
7:43:37,26.2713,35.0363,7.206,80.6827,22.9759,1.27,2.54998,5.445643,254.4421204,-7.1856,10.1304
7:43:38,26.266,35.0389,7.191,80.7315,22.9795,44.86,2.65196,5.445441,254.8664665,-6.9228,9.8244
7:43:39,26.268,35.0353,7.138,80.7559,22.9762,61.66,2.86798,5.445155,255.1947549,-7.056,10.2204
7:43:40,26.2627,35.0388,7.093,80.7559,22.9804,64.32,2.9943,5.445071,259.5457162,-6.0012,9.8244
7:43:41,26.2558,35.0458,7.13,80.7559,22.9879,42.59,2.93733,5.445315,262.6039325,-7.362,8.5068
7:43:42,26.2544,35.0463,7.241,80.7803,22.9887,1.54,2.85888,5.44524,277.3960675,-7.5816,7.6716
7:43:43,26.2583,35.0447,7.338,80.7559,22.9863,1.66,2.79518,5.445441,280.3016142,-6.9228,6.1308
7:43:44,26.2512,35.0518,7.315,80.7315,22.9938,1.64,2.7253,5.445669,280.4542838,-6.7896,6.1776
7:43:45,26.2613,35.0426,7.195,80.7803,22.9837,1.42,2.66641,5.445458,280.146673,-5.166,6.4404
7:43:46,26.2739,35.0326,7.068,80.7803,22.9722,25.49,2.59854,5.445391,277.1609003,-5.6916,6.3504
7:43:47,26.271,35.0374,7.067,80.7559,22.9768,81.42,2.53352,5.445761,276.4654184,-4.8564,6.3072
7:43:48,26.2505,35.0614,7.208,80.7559,23.0013,1.95,2.51806,5.446914,276.4654184,-3.5388,6.7896
7:43:49,26.2522,35.0682,7.379,80.7559,23.0059,6.23,2.62629,5.448041,263.2947722,-5.472,6.966
7:43:50,26.2471,35.0639,7.393,80.7803,23.0042,42.34,2.71154,5.446914,263.2947722,-6.3504,6.8364
7:43:51,26.2482,35.0631,7.199,80.7559,23.0033,1.32,2.78148,5.446905,263.2947722,-6.0012,6.3504
7:43:52,26.2557,35.0592,6.974,80.7071,22.998,1.49,2.85414,5.447149,276.7052278,-4.9464,6.4404
7:43:53,26.2724,35.0507,6.988,80.7315,22.9863,1.56,2.9171,5.447729,263.2947722,-6.3972,6.3072
7:43:54,26.2803,35.0538,7.248,80.7559,22.9862,47.18,2.94905,5.449008,263.5345816,-5.6484,6.9228
7:43:55,26.274,35.0525,7.411,80.7803,22.9872,44.79,2.99658,5.448167,262.6039325,-6.57,7.2324
7:43:56,26.2742,35.0656,7.358,80.6827,22.997,3.61,2.93425,5.449992,262.8390997,-6.3972,8.0676
7:43:57,26.2755,35.0899,7.156,80.7071,23.015,64.15,3.22561,5.453476,276.2164054,-5.6052,7.452
7:43:58,26.271,35.0919,6.947,80.6827,23.0178,42.32,4.28467,5.453266,277.1609003,-6.8796,5.7816
7:43:59,26.2732,35.0922,6.812,80.6339,23.0174,1.22,4.72321,5.453543,279.1339206,-7.056,4.5504
7:44:00,26.2794,35.0916,6.863,80.6339,23.015,1.66,4.61147,5.454107,280.3016142,-6.8364,4.7268
7:44:01,26.2864,35.0915,7.101,80.7071,23.0127,25.42,4.52622,5.45484,279.1339206,-7.5384,5.166
7:44:02,26.2852,35.0922,7.405,80.7559,23.0136,98.58,4.48327,5.454823,277.6067293,-7.5384,6.3072
7:44:03,26.2811,35.0934,7.538,80.7559,23.0158,98.61,4.46124,5.454571,276.7052278,-7.9344,5.8248
7:44:04,26.2763,35.0946,7.381,80.7315,23.0183,98.61,4.47584,5.454217,277.8117448,-7.0092,5.2956
7:44:05,26.2771,35.095,7.015,80.7071,23.0183,81.64,4.48351,5.454351,278.7806469,-6.1776,4.4604
7:44:06,26.2823,35.0951,6.761,80.7315,23.0167,1.71,4.48154,5.45489,277.6067293,-6.7464,4.8132
7:44:07,26.2796,35.0955,6.88,80.7315,23.0179,1.61,4.48326,5.454671,263.7835946,-7.4052,5.0328
7:44:08,26.278,35.0961,7.154,80.7803,23.0189,1.61,4.47904,5.454596,262.6039325,-5.472,5.2524
7:44:09,26.2744,35.097,7.191,80.8047,23.0206,1.49,4.48523,5.454335,259.23453,-5.0328,6.57
7:44:10,26.2707,35.0978,7.004,80.8047,23.0224,47.06,4.49676,5.454065,258.2372129,-3.8016,8.154
7:44:11,26.272,35.0981,6.832,80.7559,23.0222,25.08,4.50153,5.454234,257.5700774,-3.5388,8.6364
7:44:12,26.2705,35.0988,6.92,80.7803,23.0232,81.59,4.50216,5.454166,256.3316984,-5.076,9.0324
7:44:13,26.2444,35.102,7.247,80.7803,23.0338,2,4.48807,5.451878,258.3728905,-5.6916,8.946
7:44:14,26.2319,35.1035,7.544,80.7071,23.0389,2.37,4.4741,5.450767,262.8390997,-5.3856,8.1108
7:44:15,26.234,35.1039,7.521,80.7071,23.0386,3.57,4.48488,5.451053,279.3197332,-5.1192,7.3188
7:44:16,26.2362,35.1045,7.17,80.6827,23.0383,2.78,4.47808,5.451356,283.5514258,-5.9112,6.0012
7:44:17,26.2353,35.1052,6.7,80.6583,23.0391,1.83,4.46196,5.451331,286.5683985,-6.0012,4.4604
7:44:18,26.2512,35.1036,6.506,80.7071,23.0329,1.68,4.46385,5.452778,286.7602079,-6.7896,4.8132
7:44:19,26.2652,35.1016,6.654,80.7315,23.027,1.49,4.49485,5.45399,285.8625858,-7.2324,4.8996
7:44:20,26.2609,35.1028,6.981,80.7559,23.0293,1.61,4.49528,5.45372,283.6683016,-7.758,4.6368
7:44:21,26.2642,35.103,7.301,80.8047,23.0283,1.86,4.48033,5.454099,284.4788498,-6.9228,4.8132
7:44:22,26.2701,35.1025,7.397,80.8047,23.0261,1.95,4.47654,5.454655,283.9086984,-5.562,4.3308
7:44:23,26.2667,35.1035,7.24,80.7071,23.028,2.27,4.48907,5.454428,280.9117237,-6.57,4.8132
7:44:24,26.2702,35.1035,6.948,80.6583,23.0269,44.98,4.5001,5.454789,279.3197332,-6.6168,4.9464
7:44:25,26.2902,35.1011,6.843,80.6583,23.0188,98.58,4.50623,5.456565,278.2065176,-6.57,4.3308
7:44:26,26.2941,35.1011,6.985,80.7315,23.0175,81.83,4.4996,5.456978,276.9367884,-5.4288,5.076
7:44:27,26.2923,35.1018,7.141,80.7559,23.0186,24.71,4.50375,5.456885,263.5345816,-4.0212,5.8248
7:44:28,26.2918,35.1021,7.103,80.7803,23.0191,98.58,4.48739,5.456877,259.3952202,-5.562,6.9228
7:44:29,26.2923,35.1025,6.923,80.7315,23.0192,43.1,4.48874,5.456978,255.7521161,-5.076,8.1972
7:44:30,26.2916,35.1031,6.781,80.7315,23.0198,1.44,4.49365,5.456977,256.9364603,-3.2292,8.1972
7:44:31,26.292,35.1033,6.87,80.7803,23.0198,2.52,4.49267,5.457053,255.3027655,-3.4956,8.6796
7:44:32,26.2868,35.1045,7.137,80.8047,23.0224,2.54,4.4966,5.456683,255.1947549,-3.4056,9.738
7:44:33,26.2646,35.1076,7.315,80.8535,23.0317,2.1,4.48764,5.45479,254.1374142,-3.978,10.0008
7:44:34,26.234,35.1118,7.24,80.8535,23.0445,1.86,4.49546,5.45213,256.3316984,-3.9348,10.9224
7:44:35,26.2323,35.112,6.979,80.8047,23.0452,1.83,4.50537,5.45197,260.5119488,-4.68,10.4832
7:44:36,26.2353,35.112,6.68,80.8047,23.0442,1.71,4.50997,5.452265,263.5345816,-5.8248,9.5148
7:44:37,26.2475,35.1107,6.531,80.7803,23.0394,83.15,4.50365,5.453375,279.3197332,-5.7348,8.0208
7:44:38,26.2607,35.1092,6.731,80.7559,23.0342,82.05,4.49747,5.45457,281.6271095,-8.0208,7.9344
7:44:39,26.251,35.1107,7.125,80.7559,23.0384,24.59,4.5097,5.453771,283.1846613,-9.1224,7.362
7:44:40,26.2468,35.1116,7.378,80.8047,23.0403,98.58,4.50414,5.453452,284.8052451,-7.6248,6.5268
7:44:41,26.2563,35.1105,7.258,80.8047,23.0365,98.58,4.49702,5.454301,283.3146548,-6.264,6.7032
7:44:42,26.2684,35.1094,6.848,80.7803,23.0319,4.98,4.49802,5.455404,279.6534613,-5.7816,6.8364
7:44:43,26.2778,35.1086,6.527,80.7803,23.0283,1.93,4.49129,5.45627,276.9367884,-5.3424,7.1856
7:44:44,26.2843,35.108,6.623,80.7803,23.0259,1.78,4.49441,5.456885,263.0632116,-5.3856,8.55
7:44:45,26.2871,35.1079,6.995,80.7803,23.0249,1.78,4.49642,5.45718,262.8390997,-5.7348,8.55
7:44:46,26.2904,35.1079,7.218,80.8047,23.0239,1.81,4.47796,5.457542,263.2947722,-5.5152,7.9776
7:44:47,26.2928,35.1077,7.143,80.7803,23.0229,1.81,4.47083,5.457752,263.7835946,-4.8564,7.9344
7:44:48,26.2909,35.1085,6.971,80.7315,23.0241,1.76,4.48969,5.457668,277.1609003,-3.8916,8.46
7:44:49,26.2854,35.1096,6.978,80.1702,23.0267,2.08,4.49549,5.45723,277.8117448,-3.672,7.9344
7:44:50,26.2862,35.1096,7.089,80.7315,23.0264,1.83,4.49847,5.457314,277.1609003,-5.166,8.1108
7:44:51,26.285,35.1101,7.029,80.7315,23.0272,1.76,4.48709,5.457256,277.6067293,-5.3856,7.452
7:44:52,26.2857,35.1102,6.79,80.7559,23.027,1.59,4.47451,5.45734,281.4898521,-4.77,7.4052
7:44:53,26.2843,35.1108,6.64,80.7803,23.028,1.51,4.47401,5.457272,288.4282978,-3.7584,7.3188
7:44:54,26.2812,35.1114,6.804,80.8047,23.0294,1.54,4.48768,5.457037,290.7653918,-5.9112,6.0444
7:44:55,26.2641,35.1141,7.34,80.8047,23.0368,1.47,4.50392,5.455623,293.7203178,-7.5384,4.4604
7:44:56,26.2181,35.1194,7.875,80.8291,23.0552,1.17,4.49716,5.451525,297.1719557,-7.452,3.3624
7:44:57,26.2403,35.117,8.076,80.7559,23.0464,1.39,4.48493,5.453553,298.3141795,-5.9544,3.4488
7:44:58,26.2697,35.1128,7.896,80.7803,23.034,63.47,4.48849,5.456061,295.794572,-5.9112,3.7152
7:44:59,26.2816,35.1117,7.583,80.8047,23.0295,98.58,4.48261,5.457155,293.7203178,-5.6052,3.8916
7:45:00,26.2854,35.1111,7.501,80.8047,23.0278,63.17,4.4605,5.457466,289.9618742,-6.5268,3.3624
7:45:01,26.2808,35.1122,7.835,80.8291,23.0301,1.66,4.48031,5.457138,284.5884419,-7.8012,3.978
7:45:02,26.2691,35.114,8.363,80.8291,23.0351,24.47,4.4838,5.456179,282.8179237,-7.452,5.2092
7:45:03,26.2681,35.1145,8.72,80.8535,23.0358,82.47,4.48255,5.456154,282.5570532,-5.7816,4.8132
7:45:04,26.263,35.115,8.764,80.8535,23.0378,1.71,4.48736,5.455699,279.8161104,-6.0444,5.2524
7:45:05,26.2314,35.117,8.644,80.8779,23.0493,1.49,4.49876,5.452636,280.146673,-4.8564,5.9112
7:45:06,26.1805,35.1225,8.659,80.6827,23.0693,1.59,4.494,5.448034,278.2065176,-5.8248,5.3424
7:45:07,26.1446,35.1269,8.971,80.8779,23.0839,1.44,4.47248,5.444872,278.5986133,-5.8248,5.9112
7:45:08,26.1643,35.1241,9.44,80.8779,23.0756,24.13,4.47004,5.44658,279.6534613,-5.8248,6.1776
7:45:09,26.1281,35.1276,9.827,80.8779,23.0896,98.58,4.47853,5.443267,281.4898521,-5.9544,5.562
7:45:10,26.1243,35.1285,9.96,80.9023,23.0915,98.58,4.47634,5.442998,283.6683016,-5.562,5.7816
7:45:11,26.1305,35.1265,9.818,80.8779,23.088,98.58,4.46893,5.443359,285.0278294,-5.3856,5.9544
7:45:12,26.0991,35.1301,9.624,80.8779,23.1006,98.58,4.48925,5.440543,287.6133858,-4.5072,5.562
7:45:13,26.0808,35.1325,9.728,80.9023,23.1081,98.58,4.49595,5.438946,287.5222698,-4.8564,5.1192
7:45:14,26.0334,35.1382,10.249,80.8779,23.1272,98.58,4.48018,5.434752,286.0708743,-5.7816,5.2956
7:45:15,25.982,35.143,10.919,80.8779,23.1468,98.58,4.47225,5.430031,285.8625858,-6.4404,5.562
7:45:16,25.9749,35.1424,11.261,80.8779,23.1486,98.58,4.47346,5.429217,287.6133858,-4.7268,5.166
7:45:17,26.0097,35.1388,11.186,80.8779,23.1351,98.58,4.47777,5.432392,288.4282978,-3.7584,5.7816
7:45:18,26.0185,35.1385,10.947,80.8779,23.132,98.58,4.48159,5.433257,286.3662746,-3.5388,5.2092
7:45:19,26.0315,35.1373,10.864,80.8779,23.1271,98.58,4.47621,5.434459,284.9124908,-3.9348,5.472
7:45:20,25.9887,35.1416,11.095,80.8779,23.1437,98.58,4.46751,5.430544,282.693364,-4.5936,5.7348
7:45:21,25.9866,35.1415,11.49,80.8779,23.1443,98.58,4.48639,5.430334,281.056066,-4.1976,6.0444
7:45:22,26.0412,35.1334,11.839,80.9023,23.1212,98.58,4.48273,5.434988,278.959011,-4.1112,6.5268
7:45:23,26.1364,35.1262,12.092,80.9023,23.086,98.58,4.44037,5.444042,276.4654184,-4.1112,5.9544
7:45:24,26.1566,35.1245,12.293,80.9023,23.0783,98.58,4.44721,5.445942,263.5345816,-4.6368,6.7896
7:45:25,26.1934,35.1208,12.486,80.9511,23.064,98.58,4.44705,5.449323,262.1882552,-4.4172,7.1856
7:45:26,26.2063,35.1196,12.657,80.9267,23.059,98.58,4.43389,5.450518,262.6039325,-2.6604,7.056
7:45:27,26.2066,35.1204,12.693,80.9267,23.0595,98.58,4.43587,5.450661,261.4013867,-2.7468,7.1856
7:45:28,26.2092,35.1184,12.641,80.9023,23.0572,98.58,4.45962,5.450661,262.1882552,-1.9116,6.9228
7:45:29,26.127,35.1286,12.716,80.9267,23.0907,98.58,4.47177,5.443403,261.2193531,-3.3192,7.0092
7:45:30,26.0595,35.1369,13.072,80.9023,23.1181,98.58,4.48063,5.437451,261.9884527,-3.3192,7.6716
7:45:31,25.9329,35.1495,13.586,80.9023,23.167,98.58,4.47285,5.425859,262.8390997,-3.7584,7.1856
7:45:32,25.941,35.1468,13.869,80.8779,23.1625,98.58,4.46598,5.426355,263.5345816,-3.8016,7.452
7:45:33,25.9855,35.1377,13.809,80.8535,23.1417,98.58,4.48136,5.429798,276.4654184,-2.484,7.3188
7:45:34,25.916,35.1488,13.623,80.8535,23.1717,98.58,4.48305,5.423987,276.4654184,-3.1428,7.452
7:45:35,25.8637,35.1556,13.652,80.8779,23.1932,98.58,4.4717,5.41942,276.7052278,-4.4604,7.3188
7:45:36,25.8339,35.1586,13.979,80.8779,23.2047,98.58,4.47829,5.416702,277.1609003,-5.076,7.1856
7:45:37,25.8371,35.1576,14.449,80.8291,23.2029,98.58,4.48495,5.416928,278.0115473,-4.9896,7.056
7:45:38,25.8043,35.1611,14.843,80.8291,23.2158,98.58,4.49679,5.413967,279.4880512,-4.4172,6.3972
7:45:39,25.799,35.1607,15.111,80.8535,23.2172,98.58,4.49627,5.413363,279.8161104,-4.4172,6.3072
7:45:40,25.8018,35.1607,15.222,80.8535,23.2163,98.58,4.49308,5.413657,279.3197332,-4.9464,6.5268
7:45:41,25.7957,35.1609,15.169,80.8535,23.2183,98.58,4.48991,5.413053,279.4880512,-4.4604,6.0444
7:45:42,25.7951,35.1607,15.064,80.8535,23.2183,98.58,4.48638,5.412952,279.3197332,-3.8916,5.7816
7:45:43,25.7879,35.161,15.064,80.8535,23.2208,98.58,4.5055,5.412231,278.0115473,-4.284,5.6484
7:45:44,25.7766,35.1623,15.332,80.8535,23.2253,98.58,4.51797,5.411241,277.1609003,-4.4172,5.6916
7:45:45,25.7694,35.1634,15.786,80.8779,23.2284,98.58,4.50295,5.410654,276.7052278,-4.3308,6.1776
7:45:46,25.7639,35.1643,16.18,80.8535,23.2307,98.58,4.4969,5.410202,276.4654184,-3.8916,6.264
7:45:47,25.7699,35.1627,16.343,80.8535,23.2277,98.58,4.50325,5.410629,275.9349109,-3.8916,6.2208
7:45:48,25.7673,35.1631,16.32,80.8779,23.2287,98.58,4.48677,5.410403,263.7835946,-3.8016,6.1776
7:45:49,25.7617,35.1638,16.372,80.8535,23.231,98.58,4.47554,5.409908,263.5345816,-3.8916,6.1776
7:45:50,25.7504,35.1661,16.669,80.8535,23.2363,98.58,4.48151,5.409061,262.6039325,-4.284,6.2208
7:45:51,25.7407,35.1676,17.049,80.8779,23.2405,98.58,4.48541,5.408256,261.9884527,-4.284,6.3972
7:45:52,25.7396,35.1675,17.242,80.8535,23.2407,98.58,4.47853,5.408131,261.9884527,-3.8016,6.1776
7:45:53,25.7395,35.1673,17.204,80.8779,23.2406,98.58,4.48558,5.408089,261.4013867,-4.1976,6.1776
7:45:54,25.7334,35.1685,17.189,80.8779,23.2434,98.58,4.49154,5.407611,261.040989,-3.8016,6.4836
7:45:55,25.7325,35.1682,17.367,80.8779,23.2434,98.58,4.49317,5.407485,260.5119488,-3.8916,6.3504
7:45:56,25.7298,35.1688,17.673,80.8779,23.2447,98.58,4.49954,5.407301,259.853327,-3.5388,7.6248
7:45:57,25.7269,35.1693,17.97,80.8779,23.246,98.58,4.49886,5.407075,259.3952202,-4.0212,7.2756
7:45:58,25.7248,35.1695,18.216,80.8779,23.2467,98.58,4.50767,5.406882,259.0882763,-4.1976,7.1856
7:45:59,25.7237,35.1695,18.401,80.8779,23.2471,98.58,4.5043,5.40679,259.3952202,-3.9348,7.6248
7:46:00,25.7234,35.1693,18.513,80.8779,23.2471,98.58,4.50837,5.406723,259.0882763,-4.1544,7.056
7:46:01,25.7223,35.1693,18.55,80.8779,23.2474,98.58,4.51656,5.406622,260.3465387,-3.186,7.3188
7:46:02,25.7213,35.1693,18.564,80.8779,23.2477,98.58,4.50751,5.406513,258.943934,-4.5072,6.7896
7:46:03,25.7193,35.1692,18.676,80.9023,23.2483,98.58,4.50211,5.406287,258.943934,-4.1544,7.3188
7:46:04,25.7153,35.1698,18.966,80.9023,23.25,98.58,4.50457,5.405968,258.6606925,-4.5504,7.5816
7:46:05,25.7104,35.1702,19.36,80.9023,23.2518,98.58,4.5026,5.405524,259.23453,-4.0644,7.8012
7:46:06,25.6997,35.1718,19.725,80.9023,23.2563,98.58,4.51408,5.404628,259.5457162,-4.4604,7.5384
7:46:07,25.6989,35.172,19.985,80.9023,23.2567,98.58,4.52238,5.404577,260.8660794,-3.9348,7.4052
7:46:08,25.696,35.1725,20.022,80.9023,23.258,98.58,4.51595,5.404343,260.5119488,-4.8132,7.056
7:46:09,25.6868,35.1749,19.925,80.9023,23.2626,98.58,4.49668,5.403706,261.040989,-4.4172,7.452
7:46:10,25.681,35.176,19.88,80.9023,23.2652,98.58,4.48743,5.403228,260.3465387,-4.4604,7.452
7:46:11,25.6766,35.1769,20.021,80.9267,23.2673,98.58,4.50356,5.402901,260.5119488,-4.0644,6.9228
7:46:12,25.6773,35.1766,20.349,80.9267,23.2668,98.58,4.52096,5.402952,259.6983858,-4.4604,7.452
7:46:13,25.6748,35.1771,20.699,80.9267,23.268,98.58,4.50404,5.402767,259.853327,-4.8132,7.6716
7:46:14,25.6751,35.1768,20.959,80.9267,23.2677,98.58,4.49649,5.402776,260.6802668,-4.1976,7.6716
7:46:15,25.6739,35.1768,21.115,80.9267,23.268,98.58,4.49725,5.40265,260.8660794,-4.1976,7.4952
7:46:16,25.6695,35.178,21.249,80.9267,23.2703,98.58,4.48445,5.402357,261.040989,-4.3308,7.5816
7:46:17,25.672,35.1767,21.435,80.9267,23.2686,98.58,4.489,5.402458,260.5119488,-4.9464,7.1856
7:46:18,25.6713,35.1768,21.688,80.9511,23.2689,98.58,4.49332,5.402399,260.3465387,-4.8996,7.056
7:46:19,25.6707,35.1767,21.926,80.9267,23.269,98.58,4.48538,5.402332,260.3465387,-4.8996,7.1856
7:46:20,25.6705,35.1765,22.038,80.9267,23.2689,98.58,4.49962,5.402299,260.8660794,-4.1976,7.1856
7:46:21,25.6697,35.1766,21.978,80.9511,23.2692,98.58,4.50171,5.402215,260.5119488,-4.4172,7.1856
7:46:22,25.6696,35.1763,21.881,80.9511,23.269,98.58,4.50462,5.402164,260.6802668,-4.1976,6.9228
7:46:23,25.6614,35.1786,22.022,80.9267,23.2733,98.58,4.49455,5.401628,260.5119488,-4.1112,6.66
7:46:24,25.6629,35.1781,22.483,80.9511,23.2724,98.58,4.51036,5.401729,259.23453,-5.076,7.056
7:46:25,25.6589,35.1791,23.094,80.9511,23.2744,98.58,4.52113,5.401469,258.3728905,-6.0444,7.1856
7:46:26,25.6594,35.1785,23.525,80.9267,23.2739,98.58,4.50908,5.401461,259.23453,-4.7268,7.3188
7:46:27,25.661,35.178,23.599,80.9511,23.2729,98.58,4.49278,5.40157,260.6802668,-3.9348,7.3188
7:46:28,25.6623,35.1773,23.39,80.9755,23.2721,98.58,4.49822,5.401595,260.6802668,-3.8016,7.056
7:46:29,25.6637,35.1765,23.159,80.9755,23.271,98.58,4.50216,5.40162,260.3465387,-3.9348,6.57
7:46:30,25.66,35.1774,23.158,80.9511,23.2728,98.58,4.51198,5.401352,258.943934,-4.68,6.264
7:46:31,25.6605,35.1771,23.493,80.9755,23.2724,98.58,4.52632,5.401377,258.3728905,-4.9896,6.5268
7:46:32,25.6601,35.1771,24.044,80.9755,23.2725,98.58,4.52708,5.401361,257.6985008,-6.0876,7.3188
7:46:33,25.6576,35.1774,24.468,80.9755,23.2736,98.58,4.50915,5.40116,259.23453,-4.5072,7.3188
7:46:34,25.6589,35.1768,24.639,80.9755,23.2727,98.58,4.50813,5.401236,259.5457162,-4.3308,7.0992
7:46:35,25.658,35.1768,24.676,80.9511,23.273,98.58,4.51591,5.401127,260.8660794,-3.7152,6.8364
7:46:36,25.6571,35.1767,24.773,80.9511,23.2732,98.58,4.51602,5.401035,260.3465387,-4.5504,6.4836
7:46:37,25.6564,35.1768,24.989,80.9755,23.2734,98.58,4.50096,5.400976,260.3465387,-4.4172,6.7896
7:46:38,25.6537,35.1773,25.212,80.9511,23.2747,98.58,4.50834,5.400767,260.5119488,-4.0644,6.9228
7:46:39,25.6534,35.1771,25.315,80.9755,23.2746,98.58,4.52676,5.400725,260.6802668,-3.978,6.57
7:46:40,25.6539,35.1767,25.322,80.9999,23.2742,98.58,4.50339,5.400716,260.5119488,-3.978,6.3072
7:46:41,25.6542,35.1764,25.344,80.9755,23.2739,98.58,4.49924,5.400708,260.1838896,-4.0212,6.57
7:46:42,25.6544,35.1761,25.478,80.9267,23.2736,98.58,4.50908,5.400691,259.0882763,-4.1976,6.264
7:46:43,25.655,35.1758,25.783,80.9755,23.2731,98.58,4.51985,5.400725,258.2372129,-4.5504,6.7896
7:46:44,25.6526,35.1764,26.236,80.9755,23.2743,98.58,4.50147,5.400574,257.8282581,-4.4604,7.056
7:46:45,25.653,35.176,26.72,80.9755,23.2739,98.58,4.49861,5.400583,257.4429468,-4.6368,7.1856
7:46:46,25.6523,35.1762,26.995,80.9755,23.2743,98.58,4.51818,5.400541,258.2372129,-3.8016,6.7896
7:46:47,25.6545,35.1752,26.979,80.9755,23.2728,98.58,4.51805,5.400642,257.6985008,-4.0212,6.57
7:46:48,25.654,35.1751,26.8,80.9755,23.2729,98.58,4.51738,5.400575,257.5700774,-3.8016,6.6168
7:46:49,25.6529,35.1751,26.724,80.9999,23.2732,98.58,4.51032,5.400449,257.1820763,-3.9348,6.5268
7:46:50,25.6501,35.1758,26.91,80.9999,23.2746,98.58,4.5131,5.400256,255.8642918,-3.9348,6.66
7:46:51,25.6485,35.1761,27.215,80.9755,23.2754,98.58,4.52963,5.400156,255.9773465,-3.9348,6.7896
7:46:52,25.6474,35.1763,27.482,80.9999,23.2759,98.58,4.52882,5.400064,255.8642918,-4.0644,6.9228
7:46:53,25.6473,35.1761,27.757,80.9999,23.2758,98.58,4.52483,5.400039,255.8642918,-4.0644,7.056
7:46:54,25.6432,35.1773,28.122,80.9999,23.2779,98.58,4.51462,5.399788,256.3316984,-4.0212,6.8364
7:46:55,25.6407,35.1778,28.419,80.9755,23.2791,98.58,4.49364,5.399603,257.0586955,-4.1544,6.9228
7:46:56,25.6369,35.1787,28.523,80.9755,23.2809,98.58,4.48639,5.399335,258.2372129,-3.9348,6.5268
7:46:57,25.6345,35.1792,28.47,80.9999,23.282,98.58,4.49274,5.399151,258.6606925,-3.582,6.5268
7:46:58,25.6335,35.1792,28.455,80.9999,23.2824,98.58,4.50302,5.399042,258.3728905,-4.1544,6.66
7:46:59,25.6301,35.1798,28.596,80.9999,23.2838,98.58,4.52461,5.398774,258.8014292,-4.0644,6.4404
7:47:00,25.6305,35.1797,28.841,80.9755,23.2837,98.58,4.52265,5.398808,258.103061,-4.0644,6.57
7:47:01,25.6303,35.1794,29.094,80.9999,23.2835,98.58,4.52367,5.398766,257.6985008,-4.0644,6.8364
7:47:02,25.6274,35.1798,29.317,80.9999,23.2847,98.58,4.50977,5.398523,258.2372129,-3.5388,6.8364
7:47:03,25.6271,35.1798,29.533,80.9999,23.2848,98.58,4.50073,5.39849,257.6985008,-3.672,6.9228
7:47:04,25.626,35.1797,29.748,80.9999,23.2851,98.58,4.49797,5.398381,257.306636,-4.0212,6.5268
7:47:05,25.6227,35.1799,29.986,80.9999,23.2862,98.58,4.49684,5.398071,256.3316984,-4.1976,6.3504
7:47:06,25.6113,35.1825,30.232,80.9755,23.2917,98.58,4.51396,5.397233,257.1820763,-3.4056,6.3072
7:47:07,25.6063,35.183,30.485,80.9755,23.2937,98.58,4.51902,5.396789,256.2157948,-3.8448,7.1856
7:47:08,25.6017,35.1836,30.648,80.9999,23.2955,98.58,4.52234,5.396387,257.0586955,-3.276,6.7896
7:47:09,25.603,35.1835,30.618,80.9755,23.2951,98.58,4.50698,5.396521,256.9364603,-3.0564,6.3972
7:47:10,25.6079,35.1821,30.484,80.9755,23.2924,98.58,4.50454,5.396823,256.5664476,-2.8368,6.3972
7:47:11,25.5953,35.1843,30.476,80.9999,23.298,98.58,4.50948,5.395801,256.3316984,-3.1428,6.0444
7:47:12,25.5914,35.1849,30.744,80.9999,23.2997,98.58,4.51342,5.395491,254.9721706,-3.672,6.4836
7:47:13,25.5889,35.185,31.213,80.9755,23.3006,98.58,4.49962,5.395265,254.028774,-4.3308,6.66
7:47:14,25.5801,35.1862,31.668,80.9999,23.3041,98.58,4.49582,5.39452,253.4316015,-4.68,6.9228
7:47:15,25.5669,35.1874,31.988,80.9999,23.3091,98.58,4.52237,5.393297,256.3316984,-2.88,6.5268
7:47:16,25.5734,35.1869,32.197,81.0243,23.3067,98.58,4.5409,5.393925,255.3027655,-3.1428,6.57
7:47:17,25.5661,35.1878,32.309,81.0243,23.3097,98.58,4.52448,5.393297,255.9773465,-2.88,6.7464
7:47:18,25.5598,35.1881,32.279,81.0243,23.3118,98.58,4.52321,5.392669,255.4115581,-3.4488,6.7896
7:47:19,25.5483,35.1895,32.166,80.9999,23.3165,98.58,4.52346,5.391647,256.5664476,-2.3076,6.264
7:47:20,25.5282,35.192,32.121,81.0243,23.3246,98.58,4.52367,5.389864,254.9721706,-3.186,6.3072
7:47:21,25.4966,35.1979,32.292,81.0487,23.3387,98.58,4.5232,5.387344,254.1374142,-3.6252,6.7032
7:47:22,25.4911,35.1996,32.731,80.9999,23.3417,98.58,4.52376,5.387018,253.2397921,-4.0644,7.0092
7:47:23,25.4798,35.2024,33.267,81.0243,23.3473,98.58,4.54006,5.386231,251.9303194,-4.5504,7.5816
7:47:24,25.4762,35.2036,33.617,80.9999,23.3493,98.58,4.52619,5.38603,254.7614786,-3.0996,7.0092
7:47:25,25.4856,35.2003,33.699,80.9999,23.3439,98.58,4.52863,5.386574,255.1947549,-2.6604,6.8364
7:47:26,25.4862,35.1995,33.646,80.9999,23.3432,98.58,4.53635,5.386541,255.8642918,-2.4408,6.8796
7:47:27,25.4767,35.2027,33.645,80.9999,23.3485,98.58,4.53123,5.385963,255.0875092,-3.0564,6.3972
7:47:28,25.4718,35.2049,33.779,80.9755,23.3517,98.58,4.53053,5.385746,255.0875092,-2.9232,7.056
7:47:29,25.4701,35.2058,34.017,80.9755,23.3529,98.58,4.52823,5.385704,253.4316015,-3.582,7.056
7:47:30,25.4698,35.2055,34.292,80.9511,23.3527,98.58,4.53912,5.385654,253.7316122,-3.4056,7.2324
7:47:31,25.4701,35.2052,34.515,80.9511,23.3524,98.58,4.54743,5.385646,254.7614786,-2.7036,7.3188
7:47:32,25.4658,35.2072,34.679,80.9511,23.3553,98.58,4.5446,5.38547,253.8300754,-3.3192,7.2756
7:47:33,25.4645,35.2073,34.842,80.9511,23.3557,98.58,4.51767,5.385353,253.2397921,-4.1976,7.2324
7:47:34,25.4578,35.21,35.028,80.9511,23.3598,98.58,4.52172,5.385035,254.2383449,-3.7152,6.9228
7:47:35,25.4498,35.2125,35.236,80.9511,23.3642,98.58,4.51181,5.384533,254.8664665,-3.582,7.056
7:47:36,25.4427,35.2144,35.451,80.9511,23.3678,98.58,4.49701,5.384048,255.6407986,-2.9232,7.1856
7:47:37,25.4315,35.2173,35.63,80.9755,23.3735,98.58,4.51019,5.383278,255.4115581,-3.582,7.1424
7:47:38,25.4318,35.2166,35.771,80.9755,23.3728,98.58,4.51806,5.383228,255.9773465,-3.3624,7.0092
7:47:39,25.42,35.2188,35.867,80.9511,23.3781,98.58,4.52746,5.382291,255.8642918,-3.5388,6.5268
7:47:40,25.4118,35.22,35.941,80.9511,23.3815,98.58,4.5377,5.381588,255.6407986,-3.6252,6.9228
7:47:41,25.4085,35.2206,36.038,80.9511,23.383,98.58,4.5491,5.38132,255.0875092,-3.8016,6.7032
7:47:42,25.4105,35.2195,36.231,80.9755,23.3815,98.58,4.53878,5.381387,255.4115581,-3.582,7.1856
7:47:43,25.3999,35.2221,36.581,80.9511,23.3868,98.58,4.53897,5.380651,255.3027655,-3.672,7.4052
7:47:44,25.3892,35.225,37.042,80.9511,23.3922,98.58,4.52766,5.379932,254.6571922,-4.284,7.4052
7:47:45,25.3875,35.2253,37.414,80.9511,23.393,98.56,4.53765,5.379815,256.3316984,-3.7152,7.1424
7:47:46,25.3896,35.2244,37.473,80.9511,23.3917,98.58,4.53822,5.379915,256.9364603,-3.0564,7.362
7:47:47,25.3891,35.2245,37.242,80.9267,23.3919,98.58,4.52063,5.379865,257.6985008,-2.394,7.362
7:47:48,25.3899,35.2239,37.003,80.9511,23.3912,98.58,4.52152,5.379865,256.5664476,-2.8368,7.056
7:47:49,25.3828,35.2271,37.07,80.9511,23.3958,98.56,4.54409,5.379538,255.5211502,-3.9348,7.2324
7:47:50,25.3794,35.2281,37.531,80.9511,23.3976,98.58,4.53022,5.379338,254.2383449,-4.8564,7.4952
7:47:51,25.3775,35.229,38.217,80.9267,23.3989,98.58,4.52899,5.379288,253.52832,-5.562,7.7148
7:47:52,25.3726,35.2313,38.776,80.9511,23.4021,98.58,4.54097,5.379113,254.4421204,-4.5504,8.154
7:47:53,25.377,35.2289,38.977,80.9511,23.3989,98.58,4.53978,5.379263,255.6407986,-3.582,7.6716
7:47:54,25.378,35.2282,38.85,80.9267,23.3981,98.58,4.54471,5.379263,256.6853452,-3.0096,7.452
7:47:55,25.377,35.2282,38.567,80.9755,23.3985,98.58,4.55179,5.379154,257.1820763,-2.6136,7.6248
7:47:56,25.3771,35.2274,38.41,80.9755,23.3978,98.58,4.55318,5.379046,256.4485742,-3.3192,7.1856
7:47:57,25.3707,35.2313,38.574,80.9023,23.4027,98.58,4.5479,5.378903,253.52832,-5.0328,7.8012
7:47:58,25.3679,35.233,39.095,80.9511,23.4048,98.58,4.53652,5.378862,252.7616073,-5.9544,7.8912
7:47:59,25.3639,35.2352,39.713,80.9511,23.4078,98.56,4.54172,5.37877,253.4316015,-5.3424,7.8912
7:48:00,25.3606,35.2366,40.123,80.9511,23.4098,98.58,4.5489,5.378628,256.0913016,-3.582,8.0208
7:48:01,25.3655,35.2338,40.227,80.9511,23.4062,98.58,4.54047,5.378771,256.5664476,-3.3192,7.5384
7:48:02,25.3646,35.234,40.152,80.9511,23.4066,98.58,4.53942,5.378704,257.306636,-2.79,7.6716
7:48:03,25.3594,35.2361,40.122,80.9511,23.4098,98.58,4.52032,5.378436,256.8153387,-3.8016,7.2756
7:48:04,25.3495,35.2403,40.248,80.9755,23.416,98.58,4.51735,5.377968,256.2157948,-4.2408,7.056
7:48:05,25.3416,35.2429,40.456,80.9755,23.4204,98.58,4.52788,5.377491,256.3316984,-3.8016,7.1856
7:48:06,25.3376,35.2438,40.664,80.9755,23.4223,98.56,4.55083,5.377207,256.9364603,-3.5388,7.0092
7:48:07,25.3327,35.2448,40.88,80.9755,23.4246,98.58,4.56095,5.376839,255.7521161,-4.0212,7.2324
7:48:08,25.3125,35.2495,41.155,80.9755,23.4343,98.58,4.55239,5.37535,255.7521161,-3.8016,7.5816
7:48:09,25.296,35.2523,41.468,80.9999,23.4415,98.58,4.554,5.374012,255.3027655,-4.284,7.7148
7:48:10,25.2935,35.2527,41.698,80.9755,23.4425,98.58,4.53379,5.373812,256.6853452,-3.8016,7.6716
7:48:11,25.2735,35.2569,41.854,80.9511,23.4519,98.58,4.52326,5.37229,257.5700774,-3.3192,7.6248
7:48:12,25.228,35.2659,42.032,80.9511,23.4726,98.58,4.52898,5.36872,257.8282581,-3.7152,7.1424
7:48:13,25.1805,35.2777,42.248,80.9511,23.4961,98.56,4.5424,5.365327,258.3728905,-3.3192,6.966
7:48:14,25.157,35.2823,42.389,80.9755,23.5067,98.58,4.55223,5.363489,258.943934,-2.79,7.5816
7:48:15,25.143,35.2893,42.366,80.9755,23.5163,98.58,4.54362,5.362954,259.3952202,-2.6604,7.452
7:48:16,25.1346,35.2878,42.291,80.9511,23.5177,98.58,4.55286,5.361859,259.23453,-2.5704,7.452
7:48:17,25.1035,35.2935,42.395,80.9511,23.5315,98.56,4.57147,5.359362,258.8014292,-3.1428,7.5816
7:48:18,25.088,35.296,42.819,80.9755,23.5382,98.58,4.58753,5.358092,258.103061,-4.0644,7.9344
7:48:19,25.0691,35.2997,43.4,80.9511,23.5467,98.56,4.58835,5.356623,258.6606925,-4.0644,8.1108
7:48:20,25.0359,35.3057,43.824,80.9511,23.5614,98.56,4.55634,5.353959,259.6983858,-3.0096,8.6364
7:48:21,25.046,35.3038,43.921,80.9511,23.5569,98.56,4.55107,5.354761,261.4013867,-2.5272,8.0676
7:48:22,25.0136,35.311,43.86,80.9267,23.5721,98.58,4.56894,5.352323,261.7934824,-2.6604,8.0208
7:48:23,24.9995,35.3117,43.897,80.9511,23.5769,98.58,4.55288,5.350929,261.9884527,-3.0564,7.2324
7:48:24,24.9757,35.3144,44.053,80.9511,23.5862,98.58,4.57046,5.3488,261.5873281,-3.3192,7.7148
7:48:25,24.9497,35.3203,44.202,80.9511,23.5986,98.56,4.59211,5.346864,262.3932707,-2.8368,7.9776
7:48:26,24.9267,35.3251,44.276,80.9511,23.6092,98.56,4.58816,5.345087,262.3932707,-2.9232,7.9344
7:48:27,24.8964,35.3284,44.455,80.9511,23.6209,98.56,4.59678,5.342359,262.3932707,-3.0564,7.2756
7:48:28,24.8572,35.3381,44.842,80.9511,23.6402,98.56,4.58853,5.339548,262.1882552,-3.6252,8.6364
7:48:29,24.8217,35.3418,45.319,80.9511,23.6537,98.56,4.57691,5.33633,262.6039325,-3.672,8.55
7:48:30,24.8226,35.3408,45.639,80.9511,23.6527,98.56,4.57671,5.336296,262.8390997,-3.4056,8.4168
7:48:31,24.7844,35.3489,45.669,80.9511,23.6704,98.58,4.56055,5.333362,263.2947722,-3.3192,8.0676
7:48:32,24.7757,35.3493,45.52,80.9511,23.6734,98.56,4.5585,5.332503,263.5345816,-2.6604,8.1108
7:48:33,24.7796,35.3471,45.438,80.9511,23.6705,98.56,4.57579,5.332603,276.4654184,-2.8368,7.8444
7:48:34,24.7579,35.3497,45.654,80.9511,23.6791,98.56,4.57113,5.330686,263.2947722,-4.1544,7.8444
7:48:35,24.7499,35.3501,46.116,80.9511,23.6818,98.56,4.56132,5.329928,263.5345816,-3.7584,8.1972
7:48:36,24.7299,35.3497,46.608,80.9511,23.6875,98.56,4.55422,5.327787,263.5345816,-3.6252,7.8012
7:48:37,24.7237,35.3519,46.884,80.9267,23.6911,98.56,4.54964,5.327437,276.7052278,-3.0564,8.0676
7:48:38,24.6899,35.3581,46.928,80.9267,23.706,98.56,4.54414,5.324721,276.7052278,-2.9232,7.5384
7:48:39,24.6774,35.3583,46.876,80.9511,23.7099,98.56,4.55083,5.323413,277.1609003,-2.5272,7.452
7:48:40,24.6546,35.3591,46.905,80.9511,23.7174,98.56,4.55936,5.321139,276.9367884,-3.4056,7.1856
7:48:41,24.6268,35.3634,47.084,80.9267,23.729,98.56,4.54549,5.318791,277.1609003,-3.4056,7.1856
7:48:42,24.6308,35.3618,47.449,80.9023,23.7266,98.56,4.55168,5.319016,276.7052278,-4.0212,7.5816
7:48:43,24.6233,35.3621,47.859,80.9023,23.729,98.56,4.5422,5.318283,276.7052278,-3.8016,7.3188
7:48:44,24.6229,35.3612,48.105,80.9023,23.7286,98.58,4.53284,5.318134,277.3960675,-3.1428,7.056
7:48:45,24.6199,35.361,48.119,80.9023,23.7293,98.58,4.54483,5.317784,277.6067293,-3.0096,7.1424
7:48:46,24.6164,35.3605,48.126,80.9023,23.73,98.56,4.54731,5.317359,277.8117448,-2.9664,7.0992
7:48:47,24.6122,35.3603,48.335,80.9023,23.731,98.56,4.5345,5.316893,277.1609003,-3.8016,7.1424
7:48:48,24.6114,35.3596,48.677,80.9023,23.7308,98.56,4.52376,5.316735,277.8117448,-3.4488,7.452
7:48:49,24.6113,35.3589,48.871,80.9023,23.7303,98.56,4.52723,5.316644,278.2065176,-3.186,7.0992
7:48:50,24.6082,35.3586,48.9,80.9023,23.731,98.56,4.53814,5.316277,278.4126719,-3.186,7.1424
7:48:51,24.6017,35.3588,48.975,80.9023,23.7331,98.56,4.53495,5.31562,278.0115473,-3.4488,6.7896
7:48:52,24.6008,35.3581,49.31,80.9023,23.7328,98.56,4.52566,5.315437,277.1609003,-4.5504,7.3188
7:48:53,24.5982,35.3576,49.816,80.9023,23.7332,98.56,4.52724,5.315121,278.0115473,-3.6252,7.452
7:48:54,24.5963,35.357,50.144,80.9023,23.7334,98.56,4.50778,5.314863,278.5986133,-3.3192,7.1856
7:48:55,24.5998,35.3561,50.144,80.9023,23.7317,98.56,4.52224,5.315113,279.1339206,-2.88,6.7896
7:48:56,24.5984,35.3553,50.009,80.9023,23.7314,98.56,4.53998,5.314846,279.3197332,-2.79,7.056
7:48:57,24.5951,35.3549,50.024,80.8779,23.7322,98.56,4.5431,5.314447,279.3197332,-2.79,6.9228
7:48:58,24.5884,35.3552,50.299,80.9267,23.7344,98.56,4.53302,5.313797,278.2065176,-3.582,7.0992
7:48:59,24.5889,35.3544,50.709,80.8291,23.7336,98.56,4.531,5.313756,278.2065176,-3.5388,7.4052
7:49:00,24.5896,35.3536,51.029,80.9023,23.7328,98.56,4.52604,5.313748,278.2065176,-3.8916,7.1856
7:49:01,24.5892,35.3529,51.193,80.9267,23.7324,98.56,4.54086,5.313615,278.7806469,-2.9664,7.3188
7:49:02,24.5863,35.3526,51.229,80.9267,23.7331,98.56,4.54699,5.313273,279.4880512,-2.8368,7.1856
7:49:03,24.5845,35.3521,51.311,80.9267,23.7332,98.56,4.53904,5.313024,279.3197332,-3.0996,7.056
7:49:04,24.5842,35.3515,51.579,80.9023,23.7328,98.56,4.54178,5.312907,278.959011,-3.5388,7.056
7:49:05,24.5847,35.3508,51.967,80.9023,23.7322,98.56,4.53208,5.312891,278.7806469,-3.978,7.1856
7:49:06,24.5846,35.3501,52.242,80.9267,23.7317,98.56,4.54216,5.312791,280.146673,-3.0096,7.5816
7:49:07,24.5846,35.3496,52.293,80.9267,23.7313,98.56,4.54922,5.312733,280.146673,-2.9664,6.66
7:49:08,24.5844,35.3489,52.279,80.9267,23.7308,98.56,4.53855,5.312616,280.6047798,-2.79,6.7896
7:49:09,24.5826,35.3485,52.442,80.9267,23.7311,98.56,4.54133,5.312392,279.9893544,-3.7152,6.5268
7:49:10,24.5823,35.3481,52.822,80.9511,23.7308,98.56,4.54381,5.312309,279.6534613,-3.8448,7.2756
7:49:11,24.5816,35.3476,53.172,80.9267,23.7307,98.56,4.51724,5.312184,279.9893544,-3.582,6.8364
7:49:12,24.5812,35.3471,53.268,80.9511,23.7304,98.56,4.53202,5.312084,281.056066,-2.6604,6.9228
7:49:13,24.5795,35.3466,53.179,80.9511,23.7305,98.56,4.55094,5.311835,281.4898521,-2.5704,6.7896
7:49:14,24.575,35.3468,53.223,80.9267,23.7321,98.56,4.53211,5.311393,281.3393075,-2.484,6.66
7:49:15,24.5742,35.3464,53.632,80.9511,23.732,98.56,4.53272,5.311277,279.1339206,-4.374,7.3188
7:49:16,24.5706,35.3464,54.228,80.9511,23.733,98.56,4.55981,5.31092,278.959011,-4.1544,7.3188
7:49:17,24.5712,35.3455,54.541,80.9511,23.7322,98.56,4.54783,5.31087,280.3016142,-3.1428,7.3188
7:49:18,24.5737,35.3446,54.496,80.9755,23.7308,98.56,4.5189,5.31102,281.4898521,-2.3508,6.9228
7:49:19,24.5717,35.3444,54.331,80.9023,23.7312,98.56,4.53333,5.310778,281.1985708,-2.394,6.66
7:49:20,24.5698,35.3444,54.323,80.9511,23.7318,98.56,4.56221,5.31057,279.6534613,-3.186,6.6168
7:49:21,24.5579,35.3454,54.539,80.9755,23.7361,98.56,4.54506,5.309472,280.4542838,-2.3076,6.57
7:49:22,24.557,35.3451,54.941,80.9755,23.7362,98.56,4.5313,5.309339,278.5986133,-3.5388,7.056
7:49:23,24.5539,35.3452,55.418,80.9755,23.7372,98.56,4.53624,5.309056,278.4126719,-3.7584,7.056
7:49:24,24.5241,35.3487,55.812,80.9999,23.7489,98.56,4.55168,5.306411,278.7806469,-3.3624,6.7896
7:49:25,24.5303,35.3474,56.006,80.9999,23.746,98.56,4.56244,5.306894,279.3197332,-3.0564,6.9228
7:49:26,24.5387,35.3442,56.013,80.9755,23.741,98.56,4.56594,5.307351,279.6534613,-2.5704,6.66
7:49:27,24.5146,35.3477,55.975,80.9999,23.7509,98.56,4.5678,5.305288,281.056066,-1.9116,6.7896
7:49:28,24.4656,35.3527,56.026,81.0243,23.7695,98.56,4.55777,5.300806,280.76547,-2.2212,6.3972
7:49:29,24.4294,35.3589,56.204,81.0243,23.785,98.56,4.57382,5.29783,279.3197332,-3.0096,6.3504
7:49:30,24.3924,35.3642,56.457,81.0243,23.8001,98.56,4.57976,5.294671,280.76547,-1.782,6.8364
7:49:31,24.4063,35.3621,56.725,81.0243,23.7943,98.56,4.55971,5.29586,278.7806469,-3.0564,6.5268
7:49:32,24.3523,35.3672,56.985,81.0487,23.8144,98.56,4.56342,5.290874,279.6534613,-2.5272,6.4404
7:49:33,24.323,35.3701,57.223,81.0243,23.8253,98.56,4.56633,5.288183,278.959011,-2.79,6.3072
7:49:34,24.2996,35.3727,57.431,81.0243,23.8343,98.56,4.56058,5.28609,279.4880512,-2.5272,7.056
7:49:35,24.2829,35.3745,57.661,81.0243,23.8407,98.56,4.53699,5.284587,278.7806469,-2.9232,6.66
7:49:36,24.2549,35.3771,57.966,80.9999,23.851,98.56,4.54128,5.281996,278.2065176,-3.8448,6.66
7:49:37,24.2304,35.3794,58.294,80.9755,23.8601,98.56,4.55479,5.279747,278.7806469,-2.9232,6.66
7:49:38,24.236,35.3778,58.464,80.9511,23.8572,98.56,4.54711,5.280137,278.7806469,-2.9232,6.5268
7:49:39,24.2367,35.3772,58.375,80.9755,23.8565,98.56,4.52733,5.280112,280.146673,-2.1744,6.66
7:49:40,24.2455,35.3747,58.135,80.9511,23.852,98.56,4.52894,5.28071,279.9893544,-1.782,6.966
7:49:41,24.2352,35.3753,58.06,80.9755,23.8556,98.56,4.53902,5.279697,278.5986133,-2.5704,6.3072
7:49:42,24.2187,35.3769,58.365,80.9511,23.8617,98.56,4.54399,5.278195,278.4126719,-3.276,6.6168
7:49:43,24.2137,35.3767,59.051,80.9511,23.863,98.56,4.54729,5.277672,277.1609003,-4.4172,7.1424
7:49:44,24.196,35.3779,59.84,80.9267,23.8692,98.56,4.54406,5.276004,276.7052278,-5.6484,7.758
7:49:45,24.2011,35.3749,60.288,80.9267,23.8654,98.56,4.54288,5.276171,279.8161104,-2.1744,7.3188
7:49:46,24.2077,35.3743,60.25,80.9267,23.8629,98.56,4.51755,5.276768,279.3197332,-1.9548,7.758
7:49:47,24.213,35.3736,59.884,80.9267,23.8608,98.56,4.49843,5.277224,279.6534613,-1.782,7.056
7:49:48,24.2169,35.3724,59.601,80.9267,23.8588,98.56,4.52091,5.277465,278.959011,-2.3076,6.9228
7:49:49,24.2009,35.3734,59.623,80.9511,23.8643,98.56,4.54631,5.275913,277.8117448,-3.6252,6.8796
7:49:50,24.1844,35.3749,59.913,80.9511,23.8704,98.56,4.54299,5.274395,277.1609003,-4.5504,7.9344
7:49:51,24.1714,35.3755,60.375,80.9267,23.8747,98.56,4.52723,5.273117,277.1609003,-4.68,7.1856
7:49:52,24.1413,35.378,60.889,80.9267,23.8856,98.56,4.5295,5.270322,277.6067293,-4.4172,7.1856
7:49:53,24.112,35.3808,61.403,80.9511,23.8964,98.56,4.52026,5.267635,278.959011,-3.3192,6.9228
7:49:54,24.1223,35.3763,61.783,80.9755,23.8899,98.56,4.48261,5.268149,278.959011,-3.8016,7.362
7:49:55,24.1216,35.3777,61.902,80.9999,23.8912,98.56,4.47611,5.268265,280.3016142,-2.88,7.4052
7:49:56,24.1197,35.3777,61.79,80.9999,23.8918,98.56,4.47651,5.268058,281.3393075,-2.6604,7.2756
7:49:57,24.1163,35.3769,61.603,80.9755,23.8922,98.56,4.47639,5.267585,281.3393075,-3.0564,6.9228
7:49:58,24.1219,35.3754,61.484,80.9511,23.8894,98.56,4.47571,5.267966,282.693364,-2.6604,6.66
7:49:59,24.0808,35.3796,61.536,80.9999,23.9048,98.56,4.48703,5.26421,282.693364,-3.2292,6.6168
7:50:00,24.0657,35.3805,61.79,81.0487,23.91,98.56,4.48933,5.26276,281.896939,-3.8916,6.8364
7:50:01,24.0472,35.3819,62.245,81.0731,23.9165,98.56,4.45487,5.261019,282.8179237,-3.7152,6.7896
7:50:02,24.026,35.3834,62.751,81.0976,23.9239,98.56,4.43783,5.259014,282.1717419,-4.4172,7.0092
7:50:03,24,35.3852,63.169,81.122,23.933,98.56,4.45019,5.256545,283.0635397,-4.1544,6.7464
7:50:04,24.0176,35.3831,63.4,81.1708,23.9262,98.56,4.45498,5.258127,285.4550096,-2.5272,6.7896
7:50:05,24.0185,35.3816,63.489,81.1952,23.9248,98.56,4.44005,5.25802,285.5578796,-2.8368,6.57
7:50:06,24.0062,35.3811,63.504,81.1708,23.9281,98.56,4.40723,5.256669,286.0708743,-2.5272,6.5268
7:50:07,23.9908,35.3822,63.519,81.1952,23.9335,98.56,4.3979,5.255203,285.971226,-2.79,6.2208
7:50:08,23.9777,35.383,63.609,80.9999,23.938,98.56,4.413,5.253943,286.8553173,-2.1744,6.4404
7:50:09,23.9724,35.3828,63.728,81.244,23.9394,98.56,4.41433,5.253355,285.0278294,-3.1428,6.3972
7:50:10,23.9699,35.3823,63.779,81.2928,23.9398,98.56,4.40588,5.253041,285.7616551,-2.6604,6.264
7:50:11,23.9688,35.3814,63.801,81.2928,23.9394,98.56,4.39217,5.2528,286.2683878,-2.088,6.3072
7:50:12,23.9587,35.3819,63.995,81.2928,23.9427,98.56,4.39901,5.251815,284.6972345,-2.79,6.4404
7:50:13,23.9407,35.3832,64.457,81.2684,23.9491,98.56,4.41259,5.250117,284.2478839,-3.2292,6.66
7:50:14,23.9009,35.3891,65.098,81.3172,23.9654,98.56,4.41429,5.246756,282.693364,-4.5504,6.7896
7:50:15,23.8867,35.3905,65.582,81.3172,23.9706,98.56,4.40938,5.245465,284.2478839,-3.7584,7.0092
7:50:16,23.9209,35.3824,65.708,81.3172,23.9544,98.56,4.40736,5.24799,285.0278294,-2.7468,6.7032
7:50:17,23.9101,35.3849,65.558,81.3172,23.9595,98.56,4.40911,5.247187,284.9124908,-2.7036,6.7896
7:50:18,23.9266,35.3815,65.319,81.3172,23.952,98.56,4.40046,5.248453,286.2683878,-1.782,6.9228
7:50:19,23.9151,35.3823,65.207,81.3172,23.956,98.56,4.40491,5.247344,284.0226535,-3.276,6.66
7:50:20,23.8724,35.3887,65.34,81.2928,23.9735,98.56,4.40626,5.243726,284.4788498,-3.0996,6.57
7:50:21,23.8679,35.3879,65.713,81.3172,23.9742,98.56,4.40185,5.243164,284.3592014,-3.186,6.8364
7:50:22,23.8602,35.3881,66.189,81.3172,23.9766,98.56,4.40755,5.242402,283.0635397,-4.1112,6.7896
7:50:23,23.8396,35.3894,66.569,81.3172,23.9837,98.56,4.39899,5.240433,284.9124908,-3.4488,6.6168
7:50:24,23.8506,35.3875,66.762,81.3172,23.979,98.56,4.39724,5.241335,286.1699246,-2.7468,6.9228
7:50:25,23.8466,35.3873,66.829,81.3172,23.98,98.56,4.40859,5.240896,286.6645714,-2.5704,6.4836
7:50:26,23.8338,35.3885,66.903,81.3172,23.9847,98.56,4.40946,5.239713,287.8914983,-2.5704,6.5268
7:50:27,23.8217,35.3889,67.059,81.3172,23.9886,98.56,4.3967,5.238505,287.3386466,-3.0096,6.3972
7:50:28,23.8182,35.3887,67.275,81.3172,23.9895,98.56,4.38953,5.238125,288.6946877,-2.394,6.3972
7:50:29,23.8133,35.3879,67.46,81.3172,23.9903,98.56,4.40103,5.237521,289.9618742,-1.6056,6.2208
7:50:30,23.8062,35.3886,67.572,81.2928,23.9929,98.56,4.41521,5.236867,289.7933632,-1.7352,6.1308
7:50:31,23.7981,35.3889,67.676,81.2928,23.9956,98.56,4.42852,5.236065,288.1581378,-2.6604,6.3504
7:50:32,23.7952,35.3886,67.891,81.3172,23.9962,98.56,4.42154,5.235726,287.4306925,-3.276,6.5268
7:50:33,23.79,35.3884,68.226,81.3172,23.9976,98.56,4.40983,5.23518,286.7602079,-3.8016,6.7896
7:50:34,23.7821,35.3889,68.561,81.2928,24.0003,98.56,4.40794,5.234419,288.3410995,-3.0564,7.3188
7:50:35,23.7855,35.3878,68.754,81.2928,23.9984,98.56,4.42151,5.234643,288.7803016,-2.4408,6.9228
7:50:36,23.7853,35.3868,68.717,81.2928,23.9978,98.56,4.42271,5.234494,287.9808029,-3.0996,6.66
7:50:37,23.7837,35.3866,68.56,81.3172,23.998,85.42,4.40412,5.234287,289.4658986,-2.0016,6.4404
7:50:38,23.7799,35.3859,68.507,81.3172,23.9987,91.99,4.39683,5.233791,287.6133858,-3.3192,6.3972
7:50:39,23.7715,35.3866,68.805,81.3172,24.0017,98.56,4.40979,5.233022,287.2383927,-3.7584,6.7032
7:50:40,23.7696,35.3861,69.439,81.3172,24.0019,98.56,4.4164,5.232791,286.1699246,-4.8132,6.7896
7:50:41,23.7525,35.3878,70.139,81.2928,24.0082,98.56,4.40421,5.231245,286.6645714,-4.4172,7.1856
7:50:42,23.7577,35.3862,70.445,81.3172,24.0055,98.56,4.40288,5.2316,288.8655408,-2.6136,7.1856
7:50:43,23.7654,35.3848,70.295,81.2928,24.0021,98.56,4.39455,5.232212,289.6302868,-2.0448,7.1856
7:50:44,23.7701,35.383,69.945,81.2928,23.9994,98.56,4.40164,5.232452,289.3762954,-1.9116,7.056
7:50:45,23.77,35.3823,69.825,81.2928,23.9988,98.56,4.41268,5.232344,288.6946877,-2.5272,6.3972
7:50:46,23.7597,35.3835,70.094,81.2928,24.0028,98.56,4.40736,5.231435,286.9577679,-3.8016,6.66
7:50:47,23.7415,35.3855,70.556,81.2928,24.0097,98.56,4.41397,5.229814,286.0708743,-4.1544,6.7464
7:50:48,23.7334,35.3862,70.891,81.2928,24.0126,98.56,4.41208,5.22907,287.0518073,-3.276,6.57
7:50:49,23.7373,35.3845,71.04,81.2928,24.0102,98.56,4.39448,5.229261,287.8914983,-2.4408,6.66
7:50:50,23.7178,35.3873,71.19,81.2928,24.0181,98.56,4.40453,5.227591,287.5222698,-3.186,6.4836
7:50:51,23.6828,35.3925,71.51,81.2684,24.0323,98.56,4.42302,5.224615,287.8017604,-3.2292,6.2208
7:50:52,23.6613,35.3951,71.913,81.2928,24.0405,98.56,4.42604,5.222732,288.3410995,-3.1428,6.8364
7:50:53,23.6646,35.3932,72.121,81.3172,24.0382,98.56,4.42999,5.222839,289.1260574,-2.7036,6.8364
7:50:54,23.6718,35.3918,71.987,81.3172,24.035,98.56,4.42449,5.223401,289.5482587,-2.0448,6.7464
7:50:55,23.6702,35.3912,71.696,81.3172,24.035,98.56,4.42586,5.223145,289.6302868,-2.0448,6.0444
7:50:56,23.6675,35.3911,71.658,81.2928,24.0358,98.56,4.43479,5.222847,288.6015107,-3.0096,6.264
7:50:57,23.6557,35.3923,72.024,81.2928,24.0401,98.56,4.43836,5.221773,287.3386466,-3.9348,6.0444
7:50:58,23.6488,35.3925,72.672,81.3416,24.0423,98.56,4.45195,5.221112,286.8553173,-4.6368,6.9228
7:50:59,23.6439,35.3926,73.283,81.3172,24.0438,98.56,4.44763,5.22065,287.8017604,-4.0212,6.7032
7:51:00,23.6538,35.39,73.574,81.3416,24.0389,98.56,4.43485,5.221352,288.9504106,-2.394,6.7032
7:51:01,23.6549,35.3895,73.521,81.3416,24.0382,84.98,4.43217,5.221394,289.4658986,-2.088,6.6168
7:51:02,23.6495,35.39,73.26,81.3416,24.0402,91.62,4.4196,5.220881,289.5482587,-1.9116,6.5268
7:51:03,23.6502,35.3892,73.096,81.3172,24.0393,98.56,4.42446,5.220848,288.9504106,-2.1312,6.0444
7:51:04,23.6439,35.3901,73.267,81.3416,24.0419,98.56,4.42594,5.220303,287.4306925,-3.4488,6.2208
7:51:05,23.6415,35.3902,73.743,81.3416,24.0427,98.56,4.42896,5.220088,286.8553173,-3.6252,6.66
7:51:06,23.64,35.39,74.25,81.366,24.043,98.56,4.42673,5.21994,286.2683878,-4.0212,6.9228
7:51:07,23.6391,35.3896,74.54,81.366,24.0429,98.56,4.43335,5.2198,287.9808029,-2.6604,6.9228
7:51:08,23.643,35.3881,74.592,81.366,24.0406,98.56,4.42677,5.220014,287.6133858,-2.9232,6.66
7:51:09,23.6423,35.3877,74.517,81.366,24.0406,98.56,4.42819,5.21989,288.1581378,-2.3076,6.5268
7:51:10,23.6401,35.3874,74.471,81.366,24.0409,98.56,4.4345,5.21961,287.8914983,-2.6604,6.264
7:51:11,23.637,35.3878,74.628,81.366,24.0422,98.56,4.43739,5.219345,287.0518073,-3.4488,6.3972
7:51:12,23.6372,35.3873,75.022,81.366,24.0418,98.56,4.42504,5.219321,286.9577679,-3.2292,6.66
7:51:13,23.6367,35.387,75.484,81.3904,24.0416,84.69,4.41655,5.219247,286.6645714,-3.4056,6.66
7:51:14,23.6368,35.3865,75.797,81.3904,24.0413,91.4,4.41272,5.219205,286.9577679,-3.276,7.1856
7:51:15,23.6378,35.3857,75.93,81.366,24.0404,98.56,4.43029,5.219222,287.8017604,-2.7036,6.5268
7:51:16,23.6375,35.3854,75.974,81.366,24.0402,98.56,4.44032,5.219139,288.5150997,-2.79,6.7032
7:51:17,23.6368,35.385,75.967,81.366,24.0401,98.56,4.42803,5.219007,288.6946877,-3.0564,6.5268
7:51:18,23.6366,35.3844,75.959,81.366,24.0397,98.56,4.41808,5.218916,288.9504106,-2.79,6.3072
7:51:19,23.6367,35.384,76.04,81.3416,24.0394,98.56,4.41293,5.218875,288.5150997,-3.0564,6.3072
7:51:20,23.6356,35.3844,76.301,81.366,24.04,98.56,4.40414,5.218834,287.3386466,-4.1976,6.3504
7:51:21,23.6353,35.3841,76.688,81.3904,24.0399,98.56,4.42573,5.218768,287.9808029,-3.8916,6.7464
7:51:22,23.6336,35.385,77.045,81.3904,24.041,98.56,4.43338,5.218727,288.6015107,-3.4956,6.9228
7:51:23,23.6341,35.3844,77.291,81.3904,24.0404,98.56,4.42374,5.218711,288.8655408,-3.0996,6.9228
7:51:24,23.6345,35.3837,77.432,81.3904,24.0398,98.56,4.43021,5.218661,289.7933632,-2.8368,6.7032
7:51:25,23.6341,35.3838,77.506,81.3904,24.04,84.44,4.43147,5.218636,289.6302868,-2.9664,6.7464
7:51:26,23.6336,35.384,77.559,81.3904,24.0403,91.18,4.41397,5.21862,289.2932297,-3.4488,6.4836
7:51:27,23.6331,35.3842,77.655,81.366,24.0406,98.56,4.40646,5.218603,289.7119869,-3.186,6.5268
7:51:28,23.6338,35.383,77.864,81.3904,24.0395,98.56,4.39994,5.218529,289.88116,-3.186,6.4404
7:51:29,23.634,35.3824,78.109,81.366,24.039,98.56,4.39867,5.21848,290.2021608,-3.186,6.8796
7:51:30,23.6339,35.3817,78.303,81.3416,24.0385,98.56,4.42894,5.218389,290.3674276,-3.3192,6.7896
7:51:31,23.6342,35.381,78.437,81.366,24.0379,98.56,4.44918,5.218331,290.6876824,-3.0564,6.9228
7:51:32,23.6344,35.3803,78.601,81.366,24.0373,98.56,4.44092,5.218273,290.0422766,-3.4488,6.4404
7:51:33,23.6342,35.38,78.839,81.2928,24.0371,98.56,4.41993,5.218216,290.3674276,-3.3192,6.5268
7:51:34,23.6337,35.3801,79.085,81.366,24.0373,98.56,4.42768,5.218183,290.3674276,-3.4956,6.3072
7:51:35,23.6336,35.3797,79.331,81.366,24.037,98.56,4.43261,5.218133,291.1561959,-3.276,6.66
7:51:36,23.6338,35.379,79.517,81.3172,24.0365,98.56,4.41894,5.218075,291.6895489,-3.0564,7.1424
7:51:37,23.6335,35.379,79.629,81.3416,24.0365,83.98,4.41902,5.218043,291.6150123,-3.0564,6.57
7:51:38,23.6325,35.3792,79.696,81.3416,24.037,90.89,4.43029,5.217976,291.7700228,-3.0564,6.3072
7:51:39,23.6323,35.379,79.801,81.3416,24.0369,98.56,4.43417,5.217927,291.0032655,-3.186,6.1308
7:51:40,23.6321,35.3787,79.994,81.3416,24.0368,98.56,4.41672,5.217886,291.0798631,-2.9664,6.66
7:51:41,23.6329,35.3785,80.226,81.3416,24.0363,98.56,4.41941,5.217935,290.6876824,-2.9664,6.3504
7:51:42,23.6335,35.3785,80.464,81.3416,24.0362,98.56,4.42806,5.218018,290.9199827,-2.9664,6.66
7:51:43,23.6339,35.3785,80.695,81.3416,24.0361,98.56,4.41558,5.218068,291.0798631,-2.9664,6.9228
7:51:44,23.6339,35.3781,80.881,81.3416,24.0358,98.56,4.42588,5.218035,291.0032655,-2.8368,6.7896
7:51:45,23.6343,35.3781,81.008,81.3416,24.0356,98.56,4.44469,5.218076,290.0422766,-3.0096,6.4404
7:51:46,23.6356,35.3787,81.112,81.3416,24.0357,98.56,4.44107,5.218291,290.6876824,-3.0096,6.66
7:51:47,23.6367,35.3792,81.262,81.3416,24.0358,98.56,4.4249,5.218481,289.7933632,-2.9664,6.3072
7:51:48,23.6379,35.3797,81.5,81.3416,24.0358,98.56,4.40975,5.21868,289.3762954,-3.0564,6.1308
7:51:49,23.6377,35.3796,81.783,81.3172,24.0358,84,4.40591,5.218663,289.6302868,-2.88,6.7896
7:51:50,23.6371,35.3788,81.992,81.3172,24.0353,90.79,4.42984,5.218498,289.2098185,-2.79,6.7032
7:51:51,23.6368,35.3781,82.103,81.3172,24.0349,98.56,4.43992,5.218382,288.6015107,-3.276,6.5268
7:51:52,23.6359,35.3771,82.237,81.3172,24.0344,98.56,4.44171,5.218159,288.3410995,-3.1428,6.0876
7:51:53,23.6364,35.3771,82.483,81.3172,24.0343,98.56,4.43942,5.218217,288.1581378,-3.4488,6.264
7:51:54,23.6367,35.3769,82.714,81.3172,24.034,98.56,4.42575,5.218234,288.6015107,-2.9664,6.66
7:51:55,23.6366,35.3765,82.803,81.3172,24.0337,98.56,4.42202,5.218176,289.0419416,-2.8368,6.5268
7:51:56,23.6376,35.3766,82.795,81.3172,24.0335,98.56,4.42553,5.2183,289.2098185,-2.7036,6.0444
7:51:57,23.6386,35.3772,82.884,81.3172,24.0337,98.56,4.42289,5.21849,289.2098185,-2.7036,6.3972
7:51:58,23.6384,35.3771,83.145,81.3172,24.0337,98.56,4.43065,5.218457,288.0696806,-3.186,6.7032
7:51:59,23.6392,35.3771,83.495,81.3172,24.0334,98.56,4.43198,5.218565,287.8017604,-3.3192,6.8364
7:52:00,23.6426,35.3787,83.831,81.3172,24.0336,98.56,4.42951,5.219135,287.2383927,-3.186,6.7896
7:52:01,23.6464,35.3799,84.114,81.3172,24.0335,83.91,4.43696,5.219713,287.7040477,-3.0564,6.9228
7:52:02,23.6434,35.3785,84.315,81.3172,24.0333,90.67,4.43731,5.219226,287.8017604,-3.0564,6.7896
7:52:03,23.646,35.3797,84.382,81.3172,24.0334,98.56,4.43475,5.219656,287.5222698,-3.186,6.7896
7:52:04,23.6447,35.3785,84.284,81.3172,24.0329,98.56,4.42343,5.21935,287.6133858,-2.9232,6.7896
7:52:05,23.6427,35.3775,84.187,81.2928,24.0327,98.56,4.42734,5.219011,287.1453462,-2.7036,6.66
7:52:06,23.6405,35.3762,84.328,81.2684,24.0324,98.56,4.45017,5.218623,286.3662746,-3.1428,6.3072
7:52:07,23.6433,35.3773,84.738,81.2684,24.0324,98.56,4.43758,5.219078,285.0278294,-4.0644,7.2324
7:52:08,23.645,35.3778,85.193,81.2684,24.0322,98.56,4.39755,5.219334,285.4550096,-3.6252,7.452
7:52:09,23.6449,35.3771,85.461,81.2928,24.0317,98.56,4.4165,5.219243,286.1699246,-3.0564,7.056
7:52:10,23.6447,35.3769,85.58,81.2684,24.0317,98.56,4.43494,5.219202,285.7616551,-3.0564,6.9228
7:52:11,23.6451,35.3771,85.722,81.2928,24.0317,98.56,4.44919,5.219276,285.8625858,-3.3192,6.7896
7:52:12,23.6519,35.3814,85.886,81.2928,24.033,98.56,4.43493,5.220557,286.2683878,-2.6604,6.66
7:52:13,23.6565,35.3834,86.027,81.2928,24.0331,83.47,4.41728,5.221309,285.5578796,-3.0564,6.9228
7:52:14,23.6612,35.3857,86.138,81.3172,24.0335,90.35,4.43194,5.222111,285.2385214,-3.1428,6.9228
7:52:15,23.6651,35.3878,86.198,81.2928,24.034,98.56,4.45421,5.222797,285.7616551,-2.5704,6.8364
7:52:16,23.6669,35.3888,86.22,81.3172,24.0342,98.56,4.45429,5.223111,285.5578796,-2.7036,6.7032
7:52:17,23.6666,35.3883,86.339,81.2928,24.0339,98.56,4.44842,5.223028,284.5884419,-3.186,7.0092
7:52:18,23.6673,35.3888,86.689,81.2928,24.034,98.56,4.44736,5.223169,284.1357082,-3.672,7.4052
7:52:19,23.6687,35.3894,87.204,81.2928,24.0341,98.56,4.45512,5.223425,283.1846613,-4.1544,7.5816
7:52:20,23.6691,35.3894,87.606,81.2928,24.034,98.56,4.45152,5.223491,285.6600905,-2.9232,7.9344
7:52:21,23.6684,35.3886,87.673,81.2928,24.0336,98.56,4.44165,5.22331,285.3428078,-2.8368,7.758
7:52:22,23.6687,35.3888,87.486,81.2684,24.0336,98.56,4.44651,5.223359,286.6645714,-2.0448,7.6716
7:52:23,23.6681,35.3883,87.352,81.2684,24.0335,98.56,4.45647,5.223227,285.7616551,-2.88,7.0092
7:52:24,23.6679,35.3883,87.523,81.2684,24.0335,98.56,4.4364,5.22321,284.5884419,-4.0212,7.1856
7:52:25,23.6695,35.3899,87.941,81.244,24.0342,83.49,4.40752,5.223607,283.7842052,-4.374,7.6716
7:52:26,23.6746,35.3952,88.38,81.2684,24.0367,90.28,4.40945,5.224856,283.9086984,-4.1112,7.3188
7:52:27,23.6731,35.3935,88.604,81.2928,24.0359,98.56,4.44086,5.224484,285.5578796,-2.79,7.6716
7:52:28,23.675,35.3976,88.633,81.2928,24.0384,98.56,4.46082,5.225219,285.6600905,-2.6136,7.1424
7:52:29,23.6739,35.4022,88.723,81.2684,24.0422,98.56,4.44987,5.225707,286.1699246,-2.394,6.7032
7:52:30,23.6089,35.4005,89.028,81.2928,24.0601,98.56,4.45232,5.2187,285.0278294,-3.8916,7.1856
7:52:31,23.5932,35.3987,89.326,81.3172,24.0633,98.56,4.44338,5.216834,286.2683878,-2.9232,7.1856
7:52:32,23.5871,35.3993,89.371,81.3172,24.0656,98.56,4.41216,5.216272,286.47168,-2.6136,7.1856
7:52:33,23.5703,35.3979,89.221,81.3172,24.0694,98.56,4.40923,5.214315,287.1453462,-2.3076,6.7896
7:52:34,23.5428,35.3937,89.206,81.3172,24.0743,98.56,4.39793,5.210888,286.0708743,-3.1428,6.6168
7:52:35,23.4887,35.3921,89.548,81.3416,24.0889,98.56,4.38128,5.205045,284.2478839,-4.284,6.9228
7:52:36,23.4672,35.3918,90.13,81.3416,24.095,98.56,4.34826,5.202776,282.8179237,-5.2956,7.452
7:52:37,23.4511,35.3921,90.57,81.3416,24.1,83.44,4.3224,5.201151,283.7842052,-4.6368,7.5816
7:52:38,23.4824,35.3896,90.636,81.366,24.0889,90.16,4.31084,5.204105,285.7616551,-2.8368,7.5816
7:52:39,23.47,35.3902,90.457,81.3416,24.093,98.56,4.30715,5.202875,284.9124908,-3.2292,7.5384
7:52:40,23.4624,35.3899,90.374,81.3172,24.095,98.56,4.30723,5.202042,285.2385214,-3.0564,7.1856
7:52:41,23.4007,35.3883,90.665,81.3416,24.1117,98.56,4.32401,5.195387,283.5514258,-4.4604,7.0992
7:52:42,23.3889,35.3868,91.187,81.366,24.1141,98.56,4.31988,5.193985,284.2478839,-4.1544,7.5816
7:52:43,23.3901,35.3862,91.537,81.366,24.1133,98.56,4.30991,5.194043,286.6645714,-2.2212,8.1108
7:52:44,23.3815,35.3862,91.492,81.366,24.1158,98.56,4.28606,5.193136,285.971226,-2.394,7.2756
7:52:45,23.3809,35.3854,91.26,81.366,24.1154,98.56,4.26544,5.192971,286.6645714,-1.9116,7.5384
7:52:46,23.3734,35.384,91.282,81.366,24.1165,98.56,4.25917,5.19199,283.5514258,-4.1112,7.056
7:52:47,23.3436,35.3828,91.736,81.366,24.1242,98.56,4.27252,5.188743,282.8179237,-4.8132,7.6716
7:52:48,23.3035,35.3828,92.391,81.3416,24.136,98.56,4.28423,5.184591,282.3014992,-5.2092,7.9776
7:52:49,23.2918,35.3826,92.801,81.3416,24.1392,83.1,4.28401,5.183347,284.2478839,-3.672,7.8012
7:52:50,23.2939,35.3835,92.793,81.3416,24.1392,89.91,4.29414,5.183693,285.1335335,-2.9232,7.3188
7:52:51,23.3023,35.382,92.561,81.3172,24.1357,98.56,4.3204,5.184369,286.5683985,-1.9548,7.5384
7:52:52,23.304,35.3798,92.434,81.3416,24.1335,98.56,4.31276,5.184253,284.8052451,-2.9664,7.4052
7:52:53,23.2517,35.383,92.59,81.3172,24.1512,98.56,4.29228,5.179213,282.8179237,-5.0328,7.3188
7:52:54,23.2476,35.383,92.962,81.2928,24.1524,98.56,4.29782,5.178801,284.2478839,-3.9348,7.8012
7:52:55,23.2462,35.3824,93.372,81.2928,24.1523,98.56,4.32616,5.178587,283.0635397,-5.1192,7.6716
7:52:56,23.2456,35.382,93.655,81.2928,24.1522,98.56,4.33283,5.178497,283.7842052,-4.7268,7.6248
7:52:57,23.2458,35.3816,93.736,81.2928,24.1519,98.56,4.3255,5.178464,286.1699246,-3.0996,7.2324
7:52:58,23.2446,35.3814,93.706,81.2928,24.152,98.56,4.33082,5.178299,287.6133858,-2.6604,7.1424
7:52:59,23.243,35.3812,93.825,81.2684,24.1523,98.56,4.33099,5.178126,288.4282978,-2.8368,6.9228
7:53:00,23.237,35.3817,94.249,81.2928,24.1545,98.56,4.33685,5.177583,287.9808029,-3.186,7.4952
7:53:01,23.2136,35.3842,94.778,81.2928,24.1632,83.05,4.33864,5.175484,287.8914983,-3.9348,8.2872
7:53:02,23.2185,35.3818,95.031,81.2928,24.1599,89.79,4.33605,5.17569,289.88116,-2.9232,7.8012
7:53:03,23.2148,35.3827,94.882,81.2928,24.1617,98.56,4.33619,5.175427,291.4652,-2.088,7.5384
7:53:04,23.2133,35.3828,94.538,81.2928,24.1622,98.56,4.33996,5.175254,291.0032655,-2.1312,7.5816
7:53:05,23.2152,35.3808,94.404,81.2928,24.1601,98.56,4.33982,5.175196,289.1260574,-3.582,6.57
7:53:06,23.1751,35.3843,94.672,81.2684,24.1744,98.56,4.33747,5.171468,288.6946877,-4.5072,7.758
7:53:07,23.1686,35.3841,95.268,81.2928,24.1761,98.56,4.33823,5.170785,287.9808029,-5.166,8.0676
7:53:08,23.1619,35.3834,95.902,81.2928,24.1776,98.56,4.34413,5.170028,288.6946877,-4.5936,8.1108
7:53:09,23.1589,35.3829,96.244,81.2928,24.1781,98.56,4.33294,5.169666,291.0798631,-2.7036,7.8012
7:53:10,23.1656,35.3821,96.244,81.2684,24.1755,98.56,4.33128,5.170259,291.389919,-2.8368,7.5384
7:53:11,23.1654,35.3818,96.139,81.2928,24.1753,98.56,4.34267,5.170193,290.8428242,-3.186,7.2756
7:53:12,23.1534,35.3814,96.198,81.2684,24.1785,98.56,4.35125,5.168885,290.2021608,-4.0212,7.0092
7:53:13,23.1326,35.3816,96.444,81.2684,24.1847,82.88,4.35031,5.166754,290.1223709,-4.0644,7.5816
7:53:14,23.128,35.3811,96.69,81.2684,24.1857,89.6,4.35215,5.166228,290.7653918,-3.4488,7.5816
7:53:15,23.1253,35.3809,96.787,81.2684,24.1863,98.56,4.37172,5.165915,292.2893855,-2.7468,7.1424
7:53:16,23.122,35.3803,96.779,81.2684,24.1868,98.56,4.37072,5.165496,290.1223709,-3.8916,7.2756
7:53:17,23.1187,35.3797,96.861,81.2684,24.1873,98.56,4.35707,5.165076,290.3674276,-4.0644,7.2756
7:53:18,23.1158,35.3795,97.189,81.2684,24.1879,98.56,4.35745,5.164764,289.1260574,-4.4604,7.4052
7:53:19,23.1087,35.379,97.719,81.2684,24.1896,98.56,4.3607,5.163983,289.7119869,-4.3308,7.9344
7:53:20,23.0982,35.3788,98.166,81.2928,24.1926,98.56,4.35778,5.162889,289.2932297,-4.8996,8.0676
7:53:21,23.1046,35.3776,98.256,81.2684,24.1898,98.56,4.34969,5.163399,291.7700228,-3.0564,7.4052
7:53:22,23.1049,35.3775,98.039,81.2684,24.1896,98.56,4.36628,5.163407,292.5119047,-2.5704,7.452
7:53:23,23.1057,35.3765,97.868,81.2684,24.1886,98.56,4.37638,5.16335,290.4463011,-3.3624,6.66
7:53:24,23.0787,35.377,98.069,81.2684,24.1968,98.56,4.37334,5.160611,289.6302868,-4.0644,6.8796
7:53:25,23.0574,35.3771,98.584,81.2928,24.203,82.59,4.3532,5.158417,288.4282978,-5.166,7.758
7:53:26,22.9993,35.379,99.046,81.2684,24.2213,89.33,4.36895,5.152623,289.88116,-4.1976,8.2404
7:53:27,23.0254,35.3746,99.158,81.2928,24.2104,98.56,4.37747,5.154784,289.7119869,-4.2408,7.452
7:53:28,22.9989,35.3761,99.009,81.2928,24.2192,98.56,4.36377,5.152212,290.3674276,-3.5388,7.4952
7:53:29,22.974,35.3752,98.942,81.2684,24.2257,98.56,4.3603,5.149493,290.4463011,-3.582,6.5268
7:53:30,22.9282,35.3772,99.27,81.2684,24.2404,98.56,4.36728,5.144984,289.2932297,-4.8132,7.4052
7:53:31,22.93,35.3762,99.896,81.2684,24.2392,98.56,4.36877,5.145074,288.6946877,-5.2524,8.2872
7:53:32,22.9272,35.3755,100.366,81.2928,24.2394,98.56,4.37313,5.144705,290.2021608,-4.5504,7.7148
7:53:33,22.93,35.3753,100.373,81.2928,24.2385,98.56,4.35349,5.144976,291.4652,-3.4056,7.8012
7:53:34,22.9265,35.3746,100.037,81.2928,24.2389,98.56,4.3562,5.1445,292.1439146,-2.6604,7.4952
7:53:35,22.9286,35.3735,99.776,81.2928,24.2375,98.56,4.37001,5.144573,290.6876824,-3.7152,6.966
7:53:36,22.9161,35.3735,99.925,81.2928,24.2411,98.56,4.36579,5.143268,288.4282978,-5.562,7.3188
7:53:37,22.9122,35.3732,100.477,81.2928,24.242,82.34,4.35606,5.142849,288.1581378,-6.0876,8.0676
