Time [LST],"Temperature [ITS-90, deg C]","Salinity, Practical [PSU]","Depth [salt water, m], lat = 33.00","Beam Transmission, Chelsea/Seatech/WET Labs CStar [%]","Density [sigma-t, Kg/m^3 ]",Altimeter [m],"Oxygen, SBE 43 [ml/l]",Conductivity [S/m],Heading [deg],Pitching [deg],Rolling [deg]
6:06:10,27.7113,35.0684,10.021,80.9023,22.5402,98.61,3.25391,5.602346,128.0902511,-4.4604,3.978
6:06:11,27.7112,35.0697,9.499,80.9023,22.5412,98.61,3.2938,5.602491,128.8089569,-4.5936,3.672
6:06:12,27.7144,35.0682,9.916,80.8779,22.539,98.61,3.26042,5.602644,128.8966375,-7.1424,5.1192
6:06:13,27.7148,35.0702,10.907,80.9267,22.5404,98.61,3.51395,5.603002,131.3298659,-11.0124,6.4836
6:06:14,27.7115,35.0739,12.271,80.9267,22.5442,98.61,4.01873,5.603241,134.8138814,-14.526,7.056
6:06:15,27.7055,35.0789,12.524,80.9267,22.5499,98.61,4.10767,5.603318,131.5411182,-3.0564,1.5588
6:06:16,27.7132,35.0728,11.563,80.9023,22.5429,98.61,3.86825,5.603232,132.669119,-4.1544,3.186
6:06:17,27.7136,35.0719,10.401,80.9267,22.542,98.61,3.6401,5.603095,137.719558,-5.6916,0.0216
6:06:18,27.7138,35.0724,10.058,80.9267,22.5423,98.61,3.62471,5.603172,135.2092214,-6.8796,0.4176
6:06:19,27.715,35.076,10.602,80.9023,22.5446,98.61,3.60471,5.603828,134.8528886,-11.7576,2.2212
6:06:20,27.7165,35.0767,11.682,80.9267,22.5447,98.58,3.92788,5.604135,135.1704559,-16.2864,3.0564
6:06:21,27.7168,35.0759,12.866,80.9023,22.544,98.61,4.21514,5.604101,133.1605322,-13.5612,3.0096
6:06:22,27.7168,35.0772,13.097,80.9267,22.545,98.58,4.05019,5.604297,122.6225805,-2.2644,1.4724
6:06:23,27.7165,35.0783,12.769,80.9267,22.5459,98.58,3.67278,5.604416,122.6735594,-5.472,2.394
6:06:24,27.7161,35.0791,12.247,80.9267,22.5467,98.61,3.51386,5.604467,120.2631342,-5.9544,2.7036
6:06:25,27.7155,35.0805,11.808,80.9023,22.5479,98.58,3.39265,5.604578,118.8412043,-6.0876,2.79
6:06:26,27.7144,35.0823,11.733,80.9267,22.5496,98.58,3.27466,5.604705,119.303427,-6.8364,2.3076
6:06:27,27.7147,35.0833,12.06,80.9511,22.5503,98.61,3.13974,5.604901,116.429849,-6.4404,3.7152
6:06:28,27.714,35.0848,12.485,80.9267,22.5516,98.61,3.18882,5.605063,115.9835328,-6.4404,4.4604
6:06:29,27.7107,35.0877,12.812,80.9023,22.5549,98.58,3.55539,5.605132,115.5352833,-5.868,4.4604
6:06:30,27.7095,35.0896,12.82,80.9267,22.5567,98.58,3.6281,5.605268,116.1764193,-5.562,3.7152
6:06:31,27.7067,35.0926,12.432,80.9267,22.5598,98.58,3.41186,5.605378,115.2735149,-4.284,3.3624
6:06:32,27.7033,35.0951,11.992,80.9023,22.5628,98.58,3.35494,5.605361,113.3009243,-3.582,4.0212
6:06:33,27.7016,35.0975,11.85,80.9267,22.5652,98.58,3.24667,5.605506,111.8440559,-3.2292,5.166
6:06:34,27.6904,35.1058,12.044,80.9023,22.575,98.58,3.11995,5.605506,113.5832113,-3.9348,5.7348
6:06:35,27.6851,35.106,12.431,80.9267,22.577,98.58,3.10602,5.604987,116.429849,-4.8996,5.2956
6:06:36,27.6922,35.1,12.714,80.9267,22.5701,98.58,3.11659,5.604902,118.4347433,-4.1112,4.1544
6:06:37,27.6913,35.1022,12.721,80.9267,22.572,98.58,3.16131,5.605123,119.6990187,-3.4956,3.672
6:06:38,27.6944,35.1014,12.445,80.9023,22.5705,98.58,3.29216,5.605328,119.9249035,-2.6604,3.672
6:06:39,27.7023,35.097,12.147,80.9267,22.5646,98.58,3.39725,5.605532,120.1492517,-2.1312,4.1976
6:06:40,27.708,35.0936,12.012,80.9267,22.5602,98.58,3.30304,5.605651,120.9741035,-2.9232,4.3308
6:06:41,27.7111,35.0911,12.094,80.9511,22.5573,98.58,3.19172,5.605617,121.5131744,-2.9232,4.1112
6:06:42,27.7092,35.0945,12.361,80.9267,22.5605,98.58,3.15809,5.605923,122.8809939,-3.1428,3.5388
6:06:43,27.7103,35.0956,12.629,80.9511,22.561,98.58,3.11312,5.606196,123.1376168,-2.6136,3.186
6:06:44,27.711,35.0957,12.673,80.9511,22.5608,98.58,3.09333,5.60629,121.4605192,-1.6488,3.4956
6:06:45,27.7105,35.0962,12.375,80.9267,22.5613,98.58,3.14491,5.606298,120.3176602,-0.8568,3.0996
6:06:46,27.7094,35.0973,11.905,80.9267,22.5625,98.58,3.16056,5.606315,121.0852534,-1.9116,3.5388
6:06:47,27.7098,35.0973,11.726,80.9267,22.5624,98.58,3.17477,5.606349,123.2924187,-3.6252,3.186
6:06:48,27.7111,35.0972,12.068,80.9267,22.5619,98.58,3.20312,5.606485,124.8390548,-4.8996,3.186
6:06:49,27.7078,35.1004,12.671,80.9023,22.5654,98.58,3.19706,5.606622,124.3465688,-4.8132,3.4488
6:06:50,27.7071,35.1011,12.968,80.9023,22.5661,98.58,3.16558,5.606656,123.1376168,-2.3508,2.7468
6:06:51,27.7074,35.1005,12.678,80.8047,22.5656,98.58,3.13202,5.606588,124.5451091,-2.0448,2.0016
6:06:52,27.7081,35.0994,12.044,80.8535,22.5646,98.58,3.05455,5.606485,125.5665966,-3.0996,2.2212
6:06:53,27.7101,35.099,11.618,80.9267,22.5635,98.61,3.04671,5.606621,125.1825916,-3.8448,2.7036
6:06:54,27.7115,35.1008,11.678,80.9511,22.5644,98.61,3.48738,5.607021,124.593579,-4.5504,2.8368
6:06:55,27.7114,35.1017,12.079,80.9511,22.5652,98.61,4.30799,5.607149,124.5451091,-5.166,2.5272
6:06:56,27.7125,35.1018,12.473,80.9023,22.5649,98.58,4.55199,5.607311,124.1959809,-4.4172,2.1744
6:06:57,27.7125,35.1024,12.592,80.9267,22.5653,98.61,4.44333,5.607388,122.9821716,-4.2408,2.5272
6:06:58,27.712,35.1031,12.48,80.9511,22.566,98.58,4.39925,5.607439,121.7273696,-4.2408,2.7036
6:06:59,27.7114,35.1039,12.248,80.9267,22.5668,98.61,4.39826,5.607473,120.0944495,-3.6252,2.6136
6:07:00,27.7112,35.1045,12.083,80.9267,22.5673,98.58,4.37355,5.607524,119.2471865,-3.0996,2.2212
6:07:01,27.7093,35.1058,12.016,80.9267,22.569,98.58,4.35537,5.607516,117.3570637,-2.9232,2.8368
6:07:02,27.707,35.1074,11.978,80.9267,22.5709,98.61,4.36487,5.607499,115.8577017,-3.4488,3.186
6:07:03,27.7076,35.1075,12.096,80.9267,22.5708,98.61,4.37766,5.607575,116.3679938,-4.1544,3.672
6:07:04,27.7073,35.1078,12.349,80.9511,22.5711,98.58,4.38267,5.607593,115.662587,-3.5388,3.4056
6:07:05,27.7089,35.1074,12.445,80.9267,22.5703,98.58,4.36652,5.60772,115.471409,-2.9232,3.0564
6:07:06,27.7084,35.1083,12.302,80.9023,22.5711,98.58,4.35794,5.607788,115.7312979,-2.9232,3.7152
6:07:07,27.7086,35.1087,12.086,80.9511,22.5713,98.58,4.38152,5.607856,116.1140067,-2.9232,3.4488
6:07:08,27.7085,35.1092,12.048,80.9511,22.5718,98.58,4.37997,5.607907,116.429849,-3.3624,4.1544
6:07:09,27.7085,35.1096,12.315,80.9267,22.5721,98.58,4.38467,5.607976,118.0180074,-3.7152,4.0644
6:07:10,27.7074,35.1105,12.486,80.9511,22.5731,98.58,4.35896,5.607993,117.9594049,-2.79,3.8916
6:07:11,27.7076,35.1108,12.239,80.9511,22.5733,98.58,4.34604,5.608061,119.0165066,-2.1312,3.7152
6:07:12,27.7006,35.1144,11.755,80.9023,22.5783,98.58,4.37015,5.607797,118.78414,-1.9116,3.672
6:07:13,27.6988,35.1155,11.628,80.9267,22.5797,98.58,4.38294,5.607763,119.1908472,-3.186,3.672
6:07:14,27.6992,35.1157,12.081,80.9511,22.5797,98.58,4.36856,5.607848,119.4762195,-3.8916,4.1976
6:07:15,27.6946,35.1178,12.684,80.8779,22.5828,98.58,4.37975,5.607687,118.5500454,-3.582,4.284
6:07:16,27.6947,35.1182,12.833,80.9267,22.583,98.58,4.38255,5.607755,119.5320627,-3.0564,3.4956
6:07:17,27.693,35.1193,12.393,80.9267,22.5844,98.58,4.37206,5.607721,120.8670605,-3.3192,3.8016
6:07:18,27.6935,35.1195,11.834,80.9267,22.5844,98.58,4.37173,5.60778,121.244684,-3.0564,3.8016
6:07:19,27.6953,35.1195,11.632,80.9267,22.5838,98.58,4.38337,5.60795,121.9922248,-3.0564,3.582
6:07:20,27.6968,35.1193,11.758,80.9023,22.5832,98.58,4.41345,5.608086,123.9464341,-3.9348,4.0212
6:07:21,27.6994,35.1181,12.033,80.9267,22.5814,98.58,4.39735,5.608206,127.2198887,-4.68,2.9232
6:07:22,27.7032,35.1151,12.301,80.9511,22.5779,98.58,4.36905,5.608197,129.6927838,-4.4172,2.3076
6:07:23,27.7054,35.1135,12.465,80.9267,22.576,98.58,4.37269,5.608206,129.4301013,-2.5704,1.9116
6:07:24,27.7056,35.1136,12.42,80.9023,22.576,98.58,4.36809,5.60824,128.8966375,-2.3076,2.2644
6:07:25,27.702,35.1169,12.077,80.9511,22.5797,98.58,4.36471,5.608308,127.6797139,-1.9116,2.5704
6:07:26,27.7064,35.1136,11.734,80.9511,22.5758,98.58,4.38044,5.608308,128.1793243,-2.88,2.088
6:07:27,27.7072,35.1137,11.838,80.9511,22.5755,98.58,4.37467,5.608401,128.987795,-4.0644,1.782
6:07:28,27.7054,35.1149,12.293,80.9267,22.5771,98.58,4.35462,5.60841,125.7592155,-4.1976,2.9232
6:07:29,27.7048,35.1153,12.561,80.9267,22.5776,98.58,4.36665,5.60841,122.9821716,-3.1428,3.276
6:07:30,27.7069,35.1144,12.285,80.9267,22.5762,98.58,4.38099,5.608487,122.7753057,-2.9232,3.3192
6:07:31,27.7037,35.1166,11.763,80.9267,22.5789,98.58,4.37812,5.608435,122.5161461,-2.9664,2.9232
6:07:32,27.6995,35.1193,11.465,80.9267,22.5823,98.58,4.36873,5.608376,121.8882543,-3.186,2.394
6:07:33,27.6983,35.12,11.652,80.9267,22.5832,98.58,4.3923,5.608342,122.6225805,-4.5504,2.5272
6:07:34,27.6985,35.1202,12.15,80.9511,22.5833,98.58,4.381,5.60841,122.5161461,-5.0328,2.9232
6:07:35,27.697,35.1212,12.553,80.9511,22.5845,98.58,4.38493,5.60841,120.7552005,-4.1112,3.4488
6:07:36,27.698,35.121,12.649,80.9267,22.584,98.58,4.38523,5.608487,121.3020766,-4.0212,3.3192
6:07:37,27.6997,35.1201,12.463,80.9511,22.5828,98.58,4.36558,5.608538,121.3020766,-3.6252,3.582
6:07:38,27.6991,35.1202,12.09,80.9511,22.5831,98.58,4.37971,5.608478,120.3176602,-3.0996,3.276
6:07:39,27.6978,35.121,11.68,80.9267,22.5841,98.58,4.39081,5.608427,121.244684,-3.8916,3.186
6:07:40,27.6981,35.1208,11.427,80.9267,22.5838,98.58,4.37363,5.608427,120.9741035,-3.8016,3.8016
6:07:41,27.6971,35.1227,11.419,80.9511,22.5856,98.58,4.36848,5.60858,120.3720976,-3.4056,3.4056
6:07:42,27.6976,35.1224,11.791,80.9267,22.5853,98.58,4.39236,5.608614,120.7552005,-3.8916,4.0644
6:07:43,27.7166,35.1136,12.461,80.9267,22.5724,98.58,4.38931,5.609407,123.7984004,-4.8996,3.4956
6:07:44,27.7197,35.112,12.99,80.9267,22.5702,98.58,4.394,5.609535,124.6903409,-3.4056,2.7468
6:07:45,27.714,35.1148,12.915,80.9267,22.5742,98.58,4.38847,5.60933,125.2302947,-2.9232,2.4408
6:07:46,27.7109,35.1165,12.17,80.9267,22.5764,98.58,4.39218,5.609202,125.1308496,-3.0564,3.0096
6:07:47,27.7166,35.114,11.179,80.9511,22.5727,98.58,4.36979,5.609406,124.8871673,-3.0564,2.6136
6:07:48,27.7185,35.1133,10.747,80.9267,22.5716,98.58,4.34758,5.609499,125.2302947,-4.0644,2.1744
6:07:49,27.7172,35.1144,11.134,80.8779,22.5729,98.58,4.36424,5.609542,124.9872162,-6.0444,3.0564
6:07:50,27.7133,35.1169,12.065,80.9511,22.576,98.58,4.38375,5.609517,125.4719216,-9.0324,4.5072
6:07:51,27.7101,35.1176,13.055,80.9511,22.5775,98.58,4.38841,5.609313,125.3730678,-7.5816,4.1112
6:07:52,27.7152,35.1159,13.122,80.9511,22.5746,98.58,4.38787,5.609611,121.4077848,-1.2528,1.3392
6:07:53,27.7199,35.1141,12.399,80.9267,22.5718,98.58,4.38207,5.609832,122.8809939,-3.9348,2.0448
6:07:54,27.7176,35.1156,11.423,80.9511,22.5737,98.58,4.3607,5.609764,121.6750337,-4.4172,1.4292
6:07:55,27.7143,35.1174,10.879,80.9511,22.5761,98.58,4.3548,5.609644,119.7590991,-5.2092,2.088
6:07:56,27.7152,35.1175,11.035,80.9267,22.5758,98.58,4.36697,5.609755,119.5878099,-7.4952,2.2212
6:07:57,27.7066,35.1222,11.69,80.9267,22.5822,98.58,4.35953,5.609543,118.3141795,-8.946,2.79
6:07:58,27.7065,35.1226,12.413,80.9267,22.5825,98.58,4.36477,5.609611,115.7312979,-7.5384,3.5388
6:07:59,27.7087,35.1214,12.829,80.9023,22.5809,98.58,4.38769,5.609688,112.1439146,-4.1544,3.186
6:08:00,27.7078,35.1221,12.762,80.9267,22.5817,98.58,4.36914,5.609696,112.1439146,-4.9464,3.2292
6:08:01,27.7075,35.1227,12.151,80.9267,22.5822,98.58,4.37004,5.609722,110.2882604,-4.2408,3.672
6:08:02,27.7074,35.1232,11.308,80.9267,22.5826,98.58,4.37749,5.609747,108.1581378,-3.9348,4.4604
6:08:03,27.7087,35.1229,10.928,80.9511,22.582,98.58,4.37874,5.609823,107.5222698,-4.77,5.2956
6:08:04,27.7078,35.1237,11.211,80.9267,22.5829,98.58,4.3847,5.609857,110.1223709,-7.4052,6.57
6:08:05,27.7093,35.1232,12.03,80.9511,22.582,98.58,4.38414,5.609977,114.4060549,-9.9576,6.0444
6:08:06,27.7146,35.1205,12.819,80.9267,22.5783,98.58,4.38916,5.61019,115.2090215,-7.7148,4.8996
6:08:07,27.7122,35.1219,12.826,80.9511,22.5801,98.58,4.37255,5.610148,112.9449271,-3.0996,4.77
6:08:08,27.7118,35.1226,12.117,80.9023,22.5808,98.58,4.37706,5.610165,114.4780601,-3.186,4.2408
6:08:09,27.7113,35.1232,11.253,80.9511,22.5814,98.58,4.3678,5.610164,115.5352833,-3.978,4.9896
6:08:10,27.712,35.123,11.006,80.9267,22.581,98.58,4.36581,5.610206,118.0813665,-5.7816,5.076
6:08:11,27.7136,35.1227,11.505,80.9267,22.5803,98.58,4.37631,5.610343,120.5934742,-8.8128,6.1776
6:08:12,27.7126,35.123,12.272,80.9023,22.5809,98.58,4.39015,5.610318,122.8303013,-9.3852,5.7348
6:08:13,27.7143,35.1223,12.637,80.9267,22.5797,98.58,4.3784,5.610412,120.8134134,-3.8916,3.7152
6:08:14,27.7124,35.1236,12.435,80.9267,22.5814,98.58,4.37139,5.610386,122.4136765,-3.8916,3.2292
6:08:15,27.7127,35.1233,11.883,80.8779,22.581,98.58,4.35711,5.610343,123.2924187,-4.1544,3.186
6:08:16,27.7168,35.1213,11.436,80.9511,22.5782,98.58,4.37429,5.610479,123.4424279,-4.1544,3.672
6:08:17,27.7293,35.1158,11.36,80.9511,22.57,98.58,4.39487,5.611016,123.8971528,-4.4604,3.4056
6:08:18,27.7329,35.1146,11.695,80.9023,22.5679,98.58,4.3903,5.611246,123.9464341,-5.076,3.0564
6:08:19,27.7439,35.1094,12.127,80.9267,22.5604,98.58,4.36871,5.611697,123.5959868,-5.2956,3.276
6:08:20,27.748,35.1077,12.394,80.9511,22.5578,98.58,4.36196,5.611902,122.7244677,-4.0212,3.186
6:08:21,27.7442,35.1097,12.364,80.9511,22.5605,98.58,4.38338,5.611783,121.8882543,-3.5388,2.9232
6:08:22,27.742,35.111,11.998,80.8779,22.5623,98.58,4.37509,5.611723,119.6434617,-2.6136,3.0564
6:08:23,27.7481,35.1084,11.439,80.9511,22.5583,98.58,4.36325,5.611969,119.0165066,-2.7468,3.4056
6:08:24,27.749,35.1082,11.147,80.9267,22.5578,98.58,4.37245,5.612029,119.1297009,-3.672,3.4056
6:08:25,27.7487,35.1087,11.541,80.9267,22.5583,98.58,4.37115,5.612089,121.0852534,-5.7348,3.3192
6:08:26,27.756,35.1053,12.338,80.9267,22.5534,98.58,4.37606,5.612404,121.0319462,-5.7816,3.4488
6:08:27,27.7561,35.1055,12.65,80.9755,22.5535,98.58,4.37712,5.612473,118.0180074,-2.394,2.5272
6:08:28,27.7507,35.1086,12.314,80.9511,22.5576,98.58,4.35868,5.612328,119.303427,-2.4408,2.79
6:08:29,27.7561,35.1061,11.762,80.9267,22.554,98.58,4.36146,5.612523,119.5878099,-2.9664,2.9232
6:08:30,27.7613,35.1041,11.516,80.9511,22.5508,98.58,4.36894,5.61277,120.2039638,-3.4056,2.9232
6:08:31,27.7621,35.1041,11.515,80.9511,22.5505,98.58,4.38468,5.612855,120.5393936,-3.9348,3.3192
6:08:32,27.7613,35.1048,11.589,80.9511,22.5513,98.58,4.37716,5.612872,120.0395567,-3.9348,3.3192
6:08:33,27.7626,35.105,11.775,80.9267,22.551,98.58,4.37263,5.613043,119.303427,-3.4056,3.3192
6:08:34,27.7656,35.1043,12.103,80.9511,22.5495,98.58,4.38781,5.613273,118.4347433,-3.0096,2.5704
6:08:35,27.7676,35.1038,12.393,80.9511,22.5485,98.58,4.37449,5.613435,117.1116701,-2.7036,2.9232
6:08:36,27.7654,35.1048,12.325,80.9511,22.5499,98.58,4.37093,5.613341,116.3679938,-2.79,3.5388
6:08:37,27.7653,35.1048,11.893,80.9511,22.55,98.58,4.36767,5.613315,116.3679938,-2.9232,3.3192
6:08:38,27.7684,35.103,11.461,80.9511,22.5476,98.58,4.34059,5.613358,116.1764193,-3.186,2.9232
6:08:39,27.7692,35.1031,11.431,80.9267,22.5475,98.58,4.339,5.61346,115.2090215,-3.7584,4.1976
6:08:40,27.7681,35.1045,11.713,80.9267,22.5488,98.58,4.34978,5.613554,114.67643,-3.8916,4.7268
6:08:41,27.7691,35.1046,12.078,80.9023,22.5486,98.58,4.36751,5.613699,115.7312979,-3.7584,3.978
6:08:42,27.7694,35.1052,12.257,80.9755,22.5489,98.58,4.37668,5.613818,115.9206884,-2.2644,3.186
6:08:43,27.7691,35.1055,12.145,80.9755,22.5493,98.58,4.38545,5.613827,117.8418599,-2.6136,2.8368
6:08:44,27.7697,35.1051,11.869,80.9023,22.5488,98.58,4.38255,5.613818,118.3141795,-2.6604,3.8016
6:08:45,27.773,35.103,11.787,80.9511,22.5461,98.58,4.37538,5.613861,118.0813665,-2.5704,3.8016
6:08:46,27.7749,35.1019,11.95,80.9267,22.5447,98.58,4.3687,5.61392,119.5878099,-2.9232,3.5388
6:08:47,27.7721,35.1048,12.338,80.9023,22.5478,98.58,4.36991,5.614057,120.2039638,-3.0564,3.276
6:08:48,27.7775,35.1008,12.732,80.8779,22.543,98.58,4.36502,5.614074,119.9845728,-2.88,3.2292
6:08:49,27.7763,35.1022,12.896,80.9023,22.5445,98.58,4.37851,5.614151,119.1908472,-1.9116,3.3624
6:08:50,27.7739,35.1044,12.889,80.8535,22.5469,98.58,4.37707,5.61421,119.5320627,-1.9116,3.672
6:08:51,27.7733,35.105,12.963,80.9511,22.5475,98.58,4.38018,5.614236,120.3176602,-1.9116,3.276
6:08:52,27.7705,35.1071,13.149,80.9267,22.5501,98.58,4.37129,5.614245,119.8144602,-1.4292,3.276
6:08:53,27.7693,35.1084,13.298,80.9267,22.5514,98.58,4.37628,5.614305,119.073154,-1.4292,3.4056
6:08:54,27.7603,35.1144,13.395,80.9023,22.5588,98.58,4.37947,5.614202,119.5878099,-1.9116,4.0644
6:08:55,27.7611,35.1153,13.552,80.9267,22.5592,98.58,4.37432,5.614416,121.1916219,-2.2644,4.1976
6:08:56,27.7606,35.1166,13.842,80.9267,22.5604,98.58,4.36111,5.614569,122.7244677,-2.088,3.672
6:08:57,27.7577,35.1185,14.095,80.9267,22.5628,98.58,4.35227,5.614535,123.392491,-1.9116,3.5388
6:08:58,27.7564,35.1198,14.237,80.8291,22.5642,98.58,4.33932,5.614595,123.8971528,-1.9116,3.5388
6:08:59,27.7552,35.1211,14.341,80.9511,22.5656,98.58,4.3789,5.614663,124.8871673,-1.782,3.4956
6:09:00,27.7541,35.1224,14.467,80.8535,22.5669,98.58,4.38689,5.614731,125.7121269,-1.9116,4.0644
6:09:01,27.7535,35.1233,14.594,80.8291,22.5678,98.58,4.3636,5.6148,126.9385977,-1.9116,3.276
6:09:02,27.7551,35.1231,14.69,80.9267,22.5671,98.58,4.35597,5.614945,128.0902511,-2.0448,3.5388
6:09:03,27.7558,35.1235,14.75,80.9023,22.5672,98.58,4.35958,5.615081,128.4491804,-1.9116,3.8916
6:09:04,27.7562,35.1239,14.839,80.9023,22.5674,98.58,4.37812,5.615183,129.4301013,-1.9116,2.9232
6:09:05,27.7536,35.1261,15.107,80.8779,22.5698,98.58,4.38505,5.615226,129.4301013,-1.692,2.9664
6:09:06,27.7453,35.1311,15.531,80.9267,22.5763,98.58,4.37779,5.615065,129.2529561,-1.6488,2.79
6:09:07,27.7346,35.1361,15.926,80.9511,22.5835,98.58,4.37337,5.614664,128.4049307,-1.9116,3.582
6:09:08,27.738,35.1351,16.022,80.9267,22.5817,98.58,4.37749,5.614886,128.3606379,-2.88,3.3624
6:09:09,27.7416,35.1341,15.896,80.9023,22.5798,98.58,4.37479,5.615116,127.5407665,-2.9232,3.7584
6:09:10,27.7472,35.1324,15.769,80.9023,22.5766,98.58,4.36348,5.615465,126.0951262,-2.1744,4.1976
6:09:11,27.7274,35.1414,15.79,80.8779,22.5899,98.58,4.35872,5.614639,125.7592155,-1.9116,3.582
6:09:12,27.7226,35.1442,16.021,80.8779,22.5935,98.58,4.35846,5.614545,125.3730678,-2.1744,4.284
6:09:13,27.7062,35.1515,16.416,80.9023,22.6044,98.58,4.37807,5.613847,125.853232,-3.276,5.2956
6:09:14,27.7154,35.1484,16.84,80.9511,22.599,98.58,4.38873,5.61441,127.8630568,-3.8016,4.6368
6:09:15,27.7219,35.1463,17.205,80.9267,22.5953,98.58,4.38736,5.614819,129.649703,-2.9664,3.672
6:09:16,27.7187,35.1484,17.264,80.9023,22.598,98.58,4.36807,5.614776,131.0758855,-2.6604,3.4488
6:09:17,27.7165,35.1501,17.077,80.8779,22.6,98.58,4.36047,5.614776,130.9046788,-2.0016,4.0212
6:09:18,27.7128,35.1523,16.928,80.9023,22.6028,98.58,4.36512,5.614691,131.5411182,-2.2212,3.582
6:09:19,27.7091,35.1547,17.061,80.9267,22.6058,98.58,4.37389,5.614631,132.5845146,-3.5388,4.284
6:09:20,27.708,35.1555,17.5,80.9267,22.6068,98.58,4.37417,5.614657,132.9153922,-3.8916,4.8132
6:09:21,27.7019,35.1581,17.954,80.8779,22.6107,98.58,4.38963,5.614393,131.5411182,-2.7036,4.3308
6:09:22,27.6907,35.1635,18.155,80.9267,22.6184,98.58,4.38027,5.613976,130.9466615,-2.2644,4.8996
6:09:23,27.6854,35.166,18.184,80.9267,22.622,98.58,4.34919,5.613772,130.8206068,-2.9232,4.8132
6:09:24,27.6767,35.1696,18.214,80.9023,22.6275,98.58,4.35575,5.613355,131.49963,-2.9232,4.284
6:09:25,27.6739,35.1712,18.28,80.8779,22.6296,98.58,4.36658,5.613287,132.1286936,-2.7468,4.4604
6:09:26,27.6694,35.1733,18.369,80.9023,22.6327,98.58,4.38605,5.613108,132.1286936,-1.9116,4.77
6:09:27,27.6679,35.1745,18.451,80.9023,22.634,98.58,4.39194,5.613125,132.9994709,-2.1744,5.166
6:09:28,27.6694,35.1745,18.652,80.9267,22.6336,98.58,4.39316,5.613295,134.0543939,-2.79,5.4288
6:09:29,27.668,35.1753,19.098,80.9023,22.6347,98.58,4.39164,5.613279,135.9536548,-3.3192,5.2092
6:09:30,27.6571,35.1787,19.486,80.9023,22.6407,98.58,4.3839,5.612623,137.0719042,-2.8368,4.8132
6:09:31,27.6545,35.18,19.508,80.9023,22.6425,98.58,4.36393,5.612529,139.3255699,-2.484,4.1544
6:09:32,27.6592,35.1792,19.09,80.9023,22.6404,98.58,4.37533,5.612895,139.1015777,-1.9116,4.1544
6:09:33,27.6565,35.1806,18.606,80.9023,22.6424,98.58,4.39076,5.612784,140.4582734,-2.6136,3.7584
6:09:34,27.6553,35.1813,18.464,80.9023,22.6433,98.58,4.36788,5.612759,141.0383559,-3.3624,4.1112
6:09:35,27.655,35.1818,18.776,80.9023,22.6438,98.58,4.36866,5.61281,141.5405942,-3.9348,4.4604
6:09:36,27.6533,35.1827,19.193,80.9267,22.645,98.58,4.39792,5.612768,141.7189092,-3.5388,4.284
6:09:37,27.6528,35.1833,19.335,80.9267,22.6456,98.58,4.39375,5.612802,140.4582734,-2.4408,4.3308
6:09:38,27.6537,35.1835,19.215,80.9267,22.6455,98.58,4.37715,5.61293,140.8583331,-3.186,4.1976
6:09:39,27.6553,35.1835,19.088,80.9267,22.6449,98.58,4.38796,5.613091,140.2409824,-3.186,3.7152
6:09:40,27.6645,35.1809,19.051,80.9023,22.64,98.58,4.38347,5.613696,138.6574044,-1.9548,3.4056
6:09:41,27.6655,35.181,18.991,80.9023,22.6397,98.58,4.38398,5.613807,137.719558,-1.9116,4.4172
6:09:42,27.6644,35.182,18.849,80.8779,22.6409,98.58,4.38243,5.613841,137.262541,-1.9116,4.77
6:09:43,27.666,35.1823,18.692,80.9023,22.6406,98.58,4.37463,5.614028,136.5721972,-2.484,4.8132
6:09:44,27.6675,35.1822,18.796,80.9023,22.64,98.58,4.38556,5.614182,137.0343325,-3.0564,4.9896
6:09:45,27.6668,35.1828,19.146,80.9267,22.6407,98.58,4.39765,5.614216,137.5675896,-2.9232,4.4604
6:09:46,27.6662,35.1832,19.4,80.9023,22.6412,98.58,4.38501,5.614224,137.1876065,-2.3076,4.9464
6:09:47,27.6649,35.1841,19.296,80.9267,22.6423,98.58,4.36887,5.614199,137.8711608,-2.4408,5.166
6:09:48,27.6648,35.1847,18.923,80.9267,22.6427,98.58,4.38482,5.614258,138.9558793,-2.4408,5.076
6:09:49,27.6706,35.1834,18.707,80.9267,22.6399,98.58,4.39473,5.614684,139.9481935,-2.79,4.8132
6:09:50,27.6713,35.1834,18.848,80.9023,22.6397,98.58,4.3911,5.614761,139.8013268,-2.2212,5.2956
6:09:51,27.665,35.1855,19.123,80.9267,22.6433,98.58,4.373,5.614412,140.5325318,-1.9116,5.2956
6:09:52,27.6623,35.1866,19.146,80.8535,22.645,98.58,4.37316,5.614276,140.8199082,-1.4724,5.1192
6:09:53,27.6645,35.1864,18.892,80.9267,22.6441,98.58,4.39758,5.614471,141.6108034,-2.1744,5.1192
6:09:54,27.6676,35.186,18.721,80.9267,22.6428,98.58,4.3772,5.614735,143.1644721,-3.3192,5.166
6:09:55,27.6701,35.1854,18.884,80.9023,22.6416,98.58,4.37166,5.614914,144.3099624,-3.8016,5.076
6:09:56,27.6644,35.1875,19.271,80.9023,22.645,98.58,4.3676,5.614625,144.2083124,-2.79,4.8132
6:09:57,27.655,35.1903,19.457,80.9267,22.6502,98.58,4.37156,5.614046,144.2422102,-2.5704,5.076
6:09:58,27.6575,35.1902,19.181,80.8779,22.6493,98.58,4.37737,5.614267,144.8947652,-2.9664,4.5504
6:09:59,27.6612,35.1893,18.726,80.9511,22.6474,98.58,4.3827,5.614522,145.3724134,-2.5272,4.3308
6:10:00,27.6652,35.1884,18.525,80.9267,22.6454,98.58,4.38145,5.614821,145.7447961,-3.0564,4.3308
6:10:01,27.6721,35.1868,18.621,80.9023,22.642,98.58,4.38933,5.615315,145.5059952,-2.9232,4.9464
6:10:02,27.6715,35.1872,18.904,80.9267,22.6425,98.58,4.39621,5.615332,145.336198,-3.0564,4.77
6:10:03,27.6634,35.1901,19.202,80.8291,22.6473,98.58,4.39741,5.614881,145.5421368,-3.3192,4.5072
6:10:04,27.6617,35.1907,19.388,80.9023,22.6483,98.58,4.38236,5.614804,144.6534855,-2.9232,4.1544
6:10:05,27.661,35.1912,19.328,80.9267,22.6489,98.58,4.3982,5.614795,144.2422102,-2.9232,4.3308
6:10:06,27.6586,35.1922,19.074,80.9267,22.6504,98.58,4.40856,5.614676,143.5130272,-2.8368,4.4604
6:10:07,27.6619,35.1913,18.761,80.8779,22.6486,98.58,4.37012,5.61488,143.2360262,-2.6604,4.4604
6:10:08,27.6612,35.1917,18.529,80.9023,22.6492,98.58,4.34475,5.614855,143.3732233,-2.6604,4.5504
6:10:09,27.6601,35.1923,18.529,80.8779,22.65,98.58,4.35396,5.614821,143.3046553,-2.79,4.9464
6:10:10,27.6568,35.1935,18.796,80.9267,22.652,98.56,4.36739,5.61465,144.3804765,-3.2292,4.8564
6:10:11,27.6459,35.1965,19.213,80.9267,22.6578,98.58,4.39168,5.613935,144.6534855,-3.6252,4.8996
6:10:12,27.6483,35.1955,19.444,80.9023,22.6563,98.58,4.38314,5.614063,144.9955539,-2.9664,4.4604
6:10:13,27.6478,35.1961,19.294,80.8779,22.6568,98.58,4.36661,5.61408,144.7910467,-3.0564,4.6368
6:10:14,27.6514,35.1953,18.914,80.9511,22.6551,98.58,4.36803,5.614335,145.6088186,-2.9232,4.3308
6:10:15,27.6468,35.1967,18.713,80.8779,22.6576,98.58,4.37763,5.614037,145.5059952,-3.0564,4.5504
6:10:16,27.6405,35.1985,18.809,80.9267,22.661,98.58,4.38474,5.613628,145.8805542,-2.9232,4.6368
6:10:17,27.6344,35.2001,18.965,80.9511,22.6642,98.58,4.37327,5.613219,146.4874243,-3.186,4.5504
6:10:18,27.636,35.2,18.92,80.9267,22.6636,98.58,4.38808,5.613373,147.91884,-3.6252,4.1544
6:10:19,27.6396,35.1992,18.763,80.9023,22.6619,98.58,4.39725,5.613628,148.8714457,-3.3624,3.8916
6:10:20,27.652,35.196,18.763,80.9267,22.6554,98.56,4.38526,5.614497,149.1307943,-2.394,3.8448
6:10:21,27.6481,35.1972,18.904,80.9511,22.6576,98.58,4.38372,5.614259,149.1307943,-2.3508,3.8448
6:10:22,27.6396,35.1997,19.015,80.8779,22.6622,98.56,4.38273,5.613705,149.5544035,-2.9232,3.8016
6:10:23,27.6423,35.1989,19.067,80.9511,22.6607,98.56,4.38596,5.613892,150.0714265,-2.9664,3.4056
6:10:24,27.6451,35.1982,19.171,80.9023,22.6593,98.56,4.38677,5.614088,149.5544035,-2.4408,3.5388
6:10:25,27.6414,35.1995,19.275,80.9267,22.6615,98.58,4.37605,5.613884,149.4905811,-2.1312,3.4488
6:10:26,27.6438,35.1989,19.089,80.9267,22.6603,98.58,4.36576,5.614054,149.1975229,-2.9232,3.8916
6:10:27,27.6349,35.2017,18.642,80.8779,22.6653,98.56,4.39894,5.613475,148.7401649,-2.8368,4.1112
6:10:28,27.6344,35.2017,18.269,80.9267,22.6655,98.56,4.38811,5.613415,148.7079867,-2.9232,3.8448
6:10:29,27.6322,35.2027,18.366,80.9511,22.6669,98.56,4.36662,5.613313,148.6409135,-3.3624,4.0644
6:10:30,27.6246,35.2048,18.932,80.9267,22.671,98.56,4.38106,5.612836,148.8714457,-3.9348,4.3308
6:10:31,27.629,35.2035,19.483,80.9511,22.6685,98.56,4.38814,5.613135,149.3281768,-3.9348,4.68
6:10:32,27.6308,35.203,19.527,80.9267,22.6675,98.58,4.38195,5.613262,150.2985929,-3.8016,3.8016
6:10:33,27.6296,35.2035,19.11,80.9023,22.6683,98.56,4.37417,5.613186,152.2457606,-3.186,3.0564
6:10:34,27.6404,35.2006,18.551,80.9267,22.6626,98.58,4.37419,5.613901,152.9067518,-2.9232,3.1428
6:10:35,27.6388,35.2011,18.268,80.9267,22.6635,98.58,4.37932,5.61379,153.315327,-3.276,3.3192
6:10:36,27.6286,35.2041,18.446,80.9023,22.6691,98.56,4.38333,5.613134,153.8144213,-4.68,3.4488
6:10:37,27.6132,35.2079,18.946,80.9267,22.677,98.56,4.38689,5.61207,154.7480197,-5.9544,3.3624
6:10:38,27.6024,35.2103,19.348,80.9267,22.6823,98.56,4.39016,5.611278,153.8782524,-4.3308,3.276
6:10:39,27.609,35.2088,19.288,80.8291,22.679,98.56,4.3922,5.611755,154.0032604,-3.672,2.79
6:10:40,27.6241,35.2047,18.849,80.9023,22.671,98.56,4.37678,5.612768,153.2511832,-3.672,3.186
6:10:41,27.6394,35.2008,18.424,80.9267,22.6631,98.56,4.36473,5.613815,153.0328227,-3.9348,3.1428
6:10:42,27.6403,35.2008,18.431,80.9511,22.6629,98.58,4.36499,5.613918,154.2197965,-5.166,2.4408
6:10:43,27.6288,35.2043,18.774,80.9511,22.6692,98.56,4.3585,5.613194,154.2808645,-5.3424,2.394
6:10:44,27.6218,35.2061,19.064,80.9267,22.6728,98.56,4.34989,5.612726,152.8758557,-4.0644,2.9664
6:10:45,27.6214,35.2061,19.049,80.9755,22.673,98.58,4.37614,5.612691,152.9376394,-3.8448,2.79
6:10:46,27.6283,35.2044,18.825,80.9267,22.6694,98.56,4.39515,5.613168,152.4036228,-3.8448,2.79
6:10:47,27.6398,35.2008,18.698,80.9267,22.663,98.56,4.40144,5.613884,151.8955755,-3.672,2.6604
6:10:48,27.6293,35.2042,18.803,80.9511,22.669,98.56,4.4109,5.613245,151.6119978,-3.6252,2.9232
6:10:49,27.6195,35.2068,19.011,80.9267,22.6741,98.56,4.40454,5.612572,151.2910832,-3.5388,2.9232
6:10:50,27.6161,35.2074,18.988,80.9023,22.6756,98.58,4.40441,5.612291,151.0373087,-3.8016,3.276
6:10:51,27.629,35.2041,18.712,80.9023,22.669,98.56,4.4011,5.613194,151.0373087,-3.8916,3.4056
6:10:52,27.6155,35.2078,18.243,80.9511,22.6761,98.56,4.40069,5.612257,151.6745017,-3.8016,2.79
6:10:53,27.6118,35.2089,17.848,80.9267,22.6782,98.56,4.38819,5.612009,150.7487681,-3.2292,3.4056
6:10:54,27.6104,35.2092,17.676,80.9511,22.6789,98.56,4.38482,5.61189,150.5226141,-3.4956,3.4056
6:10:55,27.6062,35.21,17.847,80.9511,22.6808,98.56,4.39218,5.611575,150.4910177,-3.5388,3.1428
6:10:56,27.5946,35.213,18.07,80.9267,22.6868,98.56,4.38716,5.610758,150.4277953,-3.5388,3.5388
6:10:57,27.599,35.2118,17.981,80.8291,22.6845,98.56,4.38595,5.611064,150.2669262,-3.4056,3.186
6:10:58,27.6121,35.2086,17.548,80.9267,22.6778,98.56,4.39352,5.611984,150.2352495,-3.1428,3.276
6:10:59,27.6312,35.2035,17.049,80.7559,22.6678,98.56,4.40224,5.61327,149.5544035,-2.6604,3.1428
6:11:00,27.6299,35.2041,16.728,80.9267,22.6687,98.56,4.37349,5.61321,150.0714265,-3.1428,2.7468
6:11:01,27.6272,35.2049,16.594,80.9267,22.6702,98.56,4.34735,5.613022,149.7827586,-3.8016,3.186
6:11:02,27.6279,35.2046,16.422,80.9267,22.6697,98.56,4.35121,5.613048,148.5764781,-3.7152,3.276
6:11:03,27.6325,35.2033,16.087,80.9267,22.6672,98.56,4.37731,5.613337,147.3544746,-2.7468,3.5388
6:11:04,27.6372,35.2021,15.818,80.9267,22.6648,98.56,4.39122,5.613661,146.6878531,-2.1744,3.2292
6:11:05,27.6407,35.2011,15.855,80.9023,22.663,98.56,4.39895,5.613891,147.12282,-2.5704,2.9664
6:11:06,27.6348,35.2027,16.086,80.8047,22.666,98.56,4.4125,5.613491,147.5882456,-3.3624,3.0096
6:11:07,27.6316,35.2036,16.145,80.9023,22.6678,98.56,4.40904,5.613286,147.8836699,-3.5388,2.6604
6:11:08,27.6368,35.2018,15.84,80.9267,22.6647,98.56,4.39396,5.613584,148.5442438,-3.0564,2.6604
6:11:09,27.6599,35.1945,15.236,80.9267,22.6517,98.56,4.37564,5.614972,148.1484665,-1.9116,2.5272
6:11:10,27.6714,35.1913,14.618,80.9511,22.6456,98.56,4.36068,5.615713,149.1975229,-2.3076,2.484
6:11:11,27.673,35.191,14.223,80.9023,22.6448,98.56,4.35826,5.615824,148.1484665,-1.4292,2.5704
6:11:12,27.6818,35.1884,14.111,80.9267,22.6401,98.56,4.36563,5.616394,148.9677812,-3.4488,2.2212
6:11:13,27.6777,35.1897,14.252,80.9511,22.6423,98.56,4.38784,5.616139,149.0987481,-4.1112,1.782
6:11:14,27.6818,35.1883,14.431,80.9511,22.64,98.56,4.40353,5.616386,148.2805798,-3.8448,1.782
6:11:15,27.6905,35.1852,14.386,80.9267,22.6348,98.56,4.4009,5.61688,146.0160947,-3.276,2.0448
6:11:16,27.6911,35.185,14.051,80.9511,22.6344,98.56,4.37271,5.616888,145.1660521,-2.79,1.5588
6:11:17,27.7248,35.1719,13.589,80.9755,22.6136,98.56,4.37313,5.618592,143.1301024,-2.3076,1.8684
6:11:18,27.734,35.1684,13.298,80.9511,22.608,98.56,4.37552,5.619069,142.6386366,-3.186,1.9116
6:11:19,27.737,35.1684,13.194,80.9267,22.607,98.56,4.35098,5.619376,142.4972144,-3.9348,1.5588
6:11:20,27.7411,35.1669,13.082,80.9267,22.6046,98.56,4.35496,5.619597,139.8013268,-3.8016,2.6136
6:11:21,27.7367,35.1689,12.769,80.9267,22.6076,98.56,4.36473,5.619401,138.7702539,-3.8016,2.7036
6:11:22,27.7392,35.1681,12.239,80.9267,22.6061,98.56,4.37343,5.619529,137.5675896,-3.4056,2.8368
6:11:23,27.7437,35.1661,11.904,80.9267,22.6032,98.56,4.38546,5.619716,137.7938579,-3.5388,2.484
6:11:24,27.7455,35.1655,12.038,80.9755,22.6021,98.56,4.39607,5.619818,138.7702539,-4.4604,1.9116
6:11:25,27.7419,35.167,12.358,80.9267,22.6044,98.56,4.36941,5.619674,137.9082326,-4.284,2.1312
6:11:26,27.7462,35.1651,12.44,80.9267,22.6016,98.56,4.36559,5.619861,137.3778879,-3.4056,2.0016
6:11:27,27.7594,35.1585,12.082,80.9023,22.5924,98.56,4.3611,5.620313,138.5841001,-3.9348,1.6488
6:11:28,27.7871,35.1453,11.389,80.9267,22.5734,98.56,4.346,5.621352,138.4709268,-3.5388,1.6488
6:11:29,27.7946,35.1422,10.718,80.9267,22.5686,98.56,4.35465,5.621675,138.0593853,-3.7584,1.9116
6:11:30,27.7927,35.144,10.428,80.9267,22.5706,98.56,4.3582,5.621709,136.8052742,-3.4488,1.692
6:11:31,27.7898,35.1454,10.525,80.9267,22.5725,98.56,4.36992,5.621615,137.225085,-4.77,1.1196
6:11:32,27.7892,35.1462,10.927,80.9023,22.5734,98.56,4.38683,5.621684,136.8806756,-5.868,1.386
6:11:33,27.7828,35.15,11.589,80.9511,22.5783,98.56,4.3972,5.621574,136.8429865,-6.5268,1.1664
6:11:34,27.7784,35.1522,12.021,80.9267,22.5814,98.56,4.35308,5.621437,132.5438562,-3.7584,1.386
6:11:35,27.787,35.1473,11.775,80.9267,22.5749,98.56,4.3389,5.621633,130.4334321,-3.672,1.6488
6:11:36,27.796,35.1414,10.918,80.9267,22.5675,27.16,4.36226,5.621726,127.0338331,-4.0212,3.672
6:11:37,27.7917,35.1445,10.21,80.9267,22.5713,98.56,4.3748,5.621683,127.1706047,-4.6368,2.4408
6:11:38,27.7849,35.1488,10.284,80.9267,22.5767,98.56,4.37154,5.621564,127.7246843,-6.8796,2.6136
6:11:39,27.7772,35.1533,10.865,80.9267,22.5826,98.56,4.39952,5.62142,127.0794716,-7.6716,3.672
6:11:40,27.7764,35.154,11.297,80.9267,22.5834,98.56,4.39644,5.621446,125.6649843,-5.0328,2.88
6:11:41,27.7802,35.1524,11.334,80.9023,22.5809,98.56,4.37809,5.621616,126.7053344,-5.0328,2.79
6:11:42,27.7812,35.1519,11.303,80.8779,22.5802,98.56,4.36893,5.62165,126.613209,-5.166,2.9232
6:11:43,27.7845,35.1505,11.459,80.9267,22.5781,98.56,4.38157,5.621812,125.2302947,-4.77,3.276
6:11:44,27.7843,35.1501,11.615,80.9023,22.5779,98.56,4.37772,5.621744,123.7984004,-3.672,3.8016
6:11:45,27.7875,35.1477,11.421,80.9023,22.5751,98.56,4.36808,5.621735,124.6419895,-3.9348,3.8016
6:11:46,27.7999,35.1376,10.877,80.9023,22.5634,98.56,4.36242,5.621607,125.0351511,-3.0564,3.4056
6:11:47,27.8046,35.1347,10.31,80.9023,22.5597,98.56,4.39038,5.621666,124.3465688,-2.1744,3.0564
6:11:48,27.8033,35.1369,10.16,80.8779,22.5618,98.56,4.38548,5.621828,124.3465688,-3.5388,3.8448
6:11:49,27.8016,35.1387,10.592,80.8535,22.5637,98.56,4.37519,5.621922,123.7448032,-5.472,4.4604
6:11:50,27.7958,35.1442,11.448,80.8779,22.5697,98.56,4.38435,5.622119,123.2381016,-6.1776,5.8248
6:11:51,27.7862,35.1505,12.193,80.8779,22.5775,98.56,4.37942,5.622026,122.9821716,-4.5936,3.978
6:11:52,27.7922,35.1463,12.245,80.9023,22.5724,98.56,4.36068,5.622068,122.7753057,-3.9348,3.9348
6:11:53,27.7967,35.1438,11.589,80.9267,22.5691,98.56,4.36194,5.622162,123.1376168,-3.5388,3.0096
6:11:54,27.8,35.1418,10.598,80.8779,22.5666,98.56,4.35245,5.622195,122.6735594,-4.0212,3.4056
6:11:55,27.7978,35.1438,9.949,80.8779,22.5688,98.56,4.35554,5.622212,121.0319462,-4.0644,4.5504
6:11:56,27.796,35.145,10.061,80.9023,22.5703,98.56,4.3693,5.622203,123.0872731,-6.5268,4.8996
6:11:57,27.789,35.1497,10.724,80.9023,22.576,98.56,4.37907,5.622153,124.935222,-8.3736,5.3856
6:11:58,27.7982,35.1408,11.446,80.9023,22.5663,98.56,4.36637,5.621889,126.7053344,-8.0208,4.9464
6:11:59,27.7988,35.1395,11.811,80.9267,22.5652,98.56,4.34383,5.621795,125.9040686,-3.9348,3.7584
6:12:00,27.799,35.1396,11.855,80.9023,22.5652,98.56,4.34322,5.621829,126.8010876,-3.8448,3.672
6:12:01,27.801,35.1384,11.586,80.8779,22.5637,98.56,4.37844,5.621855,126.8010876,-3.0564,3.3192
6:12:02,27.8019,35.1375,11.064,80.8535,22.5627,98.56,4.3857,5.621795,126.9385977,-3.1428,3.276
6:12:03,27.801,35.1377,10.52,80.9023,22.5631,98.56,4.36731,5.621709,127.1706047,-4.374,3.8916
6:12:04,27.8001,35.1403,10.303,80.9023,22.5654,98.56,4.36538,5.621982,127.1250621,-5.166,4.374
6:12:05,27.7994,35.142,10.646,80.8291,22.5668,98.56,4.37161,5.622152,127.7696091,-6.3972,4.0644
6:12:06,27.7968,35.1448,11.271,80.8779,22.5698,98.56,4.38204,5.622306,127.6309444,-6.3972,3.978
6:12:07,27.7979,35.1428,11.613,80.8779,22.568,98.56,4.3813,5.622153,125.3730678,-2.9664,3.1428
6:12:08,27.7989,35.1416,11.456,80.8779,22.5668,98.56,4.36179,5.622085,124.1959809,-2.6136,3.3192
6:12:09,27.7988,35.1409,11.069,80.8779,22.5663,98.56,4.33826,5.621957,123.4922989,-3.3192,3.672
6:12:10,27.7989,35.141,10.95,80.8779,22.5663,98.56,4.34272,5.621982,123.6456568,-4.284,3.7584
6:12:11,27.7999,35.1407,11.12,80.8779,22.5657,98.56,4.35244,5.622042,123.9464341,-4.5504,3.7584
6:12:12,27.799,35.1414,11.239,80.9023,22.5666,98.56,4.37588,5.622059,122.0484162,-3.9348,4.0212
6:12:13,27.8004,35.1403,11.045,80.8779,22.5653,98.56,4.38148,5.622033,121.1916219,-3.2292,4.5504
6:12:14,27.8013,35.1394,10.784,80.8779,22.5644,98.56,4.38163,5.621999,121.8361552,-2.5704,4.4172
6:12:15,27.8012,35.1377,10.821,80.9023,22.563,98.56,4.36655,5.621743,123.7448032,-2.7468,3.4488
6:12:16,27.8007,35.1389,11.164,80.9023,22.5641,98.56,4.35826,5.621871,124.935222,-2.9232,3.3624
6:12:17,27.8008,35.1384,11.514,80.8779,22.5637,98.56,4.37207,5.621829,124.7426552,-2.9664,3.582
6:12:18,27.801,35.1384,11.573,80.8291,22.5637,98.56,4.36723,5.621855,124.4439384,-2.9232,4.1544
6:12:19,27.8012,35.1385,11.372,80.8779,22.5636,98.56,4.37107,5.621871,123.7448032,-1.782,3.9348
6:12:20,27.8013,35.1388,11.081,80.8535,22.5638,98.56,4.3627,5.621922,125.8062505,-2.5704,3.672
6:12:21,27.8016,35.1396,10.947,80.8779,22.5644,98.56,4.36079,5.622067,126.378154,-2.79,3.8016
6:12:22,27.802,35.1395,11.066,80.8779,22.5642,98.56,4.37688,5.622101,126.4707903,-2.9664,3.8016
6:12:23,27.8035,35.1386,11.356,80.8779,22.563,98.56,4.36696,5.622144,126.0951262,-2.8368,4.374
6:12:24,27.8014,35.1423,11.669,80.7803,22.5664,98.56,4.36687,5.622451,125.9509394,-3.0096,4.3308
6:12:25,27.8012,35.1428,11.862,80.8535,22.5669,98.56,4.36303,5.622511,126.1417827,-2.7468,3.8916
6:12:26,27.8023,35.1411,11.996,80.8535,22.5652,98.56,4.35883,5.622392,127.4013792,-2.9232,3.582
6:12:27,27.8023,35.1409,12.085,80.7803,22.5651,98.56,4.36069,5.622375,126.8010876,-1.9116,3.6252
6:12:28,27.8023,35.1406,12.145,80.8535,22.5649,98.56,4.38498,5.622324,127.0794716,-1.9548,3.8016
6:12:29,27.8018,35.1407,12.197,80.8779,22.5651,98.56,4.37503,5.622298,128.852818,-2.6136,3.276
6:12:30,27.8007,35.1416,12.241,80.8535,22.5662,98.56,4.36209,5.622307,129.8682936,-3.2292,3.9348
6:12:31,27.8002,35.1418,12.301,80.8535,22.5664,98.56,4.36486,5.622281,130.6485145,-3.4056,4.3308
6:12:32,27.7954,35.1453,12.42,80.8535,22.5707,98.56,4.37029,5.622281,131.1177242,-3.0996,4.3308
6:12:33,27.787,35.1511,12.554,80.8535,22.5778,98.56,4.37074,5.622213,130.9466615,-2.0016,3.7152
6:12:34,27.7863,35.1515,12.703,80.8291,22.5783,98.56,4.35994,5.622205,130.7328796,-1.7352,3.4056
6:12:35,27.7875,35.1511,12.829,80.8779,22.5776,98.56,4.34325,5.622282,129.649703,-1.2096,4.0644
6:12:36,27.785,35.1527,13.008,80.8779,22.5796,98.56,4.36287,5.622239,131.7101779,-2.484,3.9348
6:12:37,27.7805,35.1547,13.328,80.8535,22.5826,98.56,4.37448,5.622069,133.7304394,-3.672,3.7584
6:12:38,27.7657,35.1606,13.641,80.8291,22.5918,98.56,4.35753,5.621336,133.3244525,-3.186,3.672
6:12:39,27.7684,35.1592,13.723,80.8535,22.5899,98.56,4.35562,5.621447,133.2040699,-2.79,3.8016
6:12:40,27.7818,35.1533,13.559,80.8779,22.5811,98.56,4.37517,5.622009,133.2040699,-2.1744,3.672
6:12:41,27.7881,35.15,13.186,80.8535,22.5766,98.56,4.38467,5.622205,134.8528886,-2.7036,3.4056
6:12:42,27.788,35.1501,12.963,80.8291,22.5767,98.56,4.36,5.622188,135.1704559,-1.9548,3.5388
6:12:43,27.7829,35.1522,13.231,80.8535,22.5799,98.56,4.34767,5.621967,136.1859613,-3.2292,3.4056
6:12:44,27.7774,35.1548,13.991,80.8535,22.5837,98.56,4.36715,5.621771,137.2999743,-4.5072,3.5388
6:12:45,27.7656,35.1597,14.855,80.8291,22.5912,98.56,4.3676,5.62126,136.6888474,-4.5936,3.6252
6:12:46,27.7667,35.159,15.153,80.8535,22.5903,98.56,4.37409,5.621286,135.6820074,-2.2644,2.4408
6:12:47,27.7739,35.1558,14.758,80.8535,22.5856,98.56,4.38443,5.621592,136.0301297,-2.088,2.79
6:12:48,27.7775,35.1541,14.05,80.8535,22.5831,98.56,4.37448,5.621694,136.2272361,-2.3076,2.394
6:12:49,27.7677,35.1585,13.662,80.8779,22.5896,98.56,4.36203,5.621268,135.9919046,-3.1428,2.2644
6:12:50,27.7592,35.1618,13.826,80.8779,22.5949,98.56,4.37774,5.620833,136.2272361,-5.1192,3.0996
6:12:51,27.7236,35.1756,14.467,80.8535,22.6168,98.56,4.38269,5.619036,137.0719042,-6.966,3.1428
6:12:52,27.7193,35.1773,15.316,80.8535,22.6195,98.56,4.38641,5.618849,137.225085,-7.0092,3.7584
6:12:53,27.7171,35.1779,15.792,80.7803,22.6206,98.56,4.39682,5.618721,134.7748474,-3.3192,3.1428
6:12:54,27.7276,35.1737,15.725,80.8291,22.6141,98.56,4.38103,5.619241,133.407894,-2.5704,3.4056
6:12:55,27.738,35.1693,15.293,80.8291,22.6074,98.56,4.37085,5.619709,134.2156627,-3.186,2.6604
6:12:56,27.7523,35.1633,14.92,80.8291,22.5982,98.56,4.36019,5.620357,133.6109544,-3.5388,3.1428
6:12:57,27.7332,35.1713,14.95,80.8291,22.6105,98.56,4.36301,5.619462,132.8749873,-4.1544,3.4056
6:12:58,27.7179,35.1768,15.359,80.8535,22.6196,98.56,4.37103,5.618644,131.5825725,-4.6368,4.6368
6:12:59,27.708,35.1807,15.873,80.8291,22.6257,98.56,4.36848,5.61815,131.8786798,-4.5936,4.5936
6:13:00,27.7085,35.1802,16.193,80.8535,22.6252,98.56,4.37775,5.618151,132.0876785,-3.672,4.5504
6:13:01,27.7076,35.1803,16.297,80.8535,22.6255,98.56,4.3955,5.618074,133.4479003,-3.8016,4.3308
6:13:02,27.7082,35.18,16.237,80.8291,22.6252,98.56,4.37932,5.618099,133.9323081,-3.1428,3.9348
6:13:03,27.7094,35.1793,16.17,80.8291,22.6242,98.56,4.35794,5.618116,133.8529727,-2.5272,3.978
6:13:04,27.6961,35.1832,16.155,80.8291,22.6315,98.56,4.35227,5.617264,133.1203122,-2.0448,4.5072
6:13:05,27.6702,35.1905,16.274,80.8291,22.6454,98.56,4.36502,5.615552,133.2442273,-2.2212,4.5504
6:13:06,27.6377,35.1995,16.579,80.8291,22.6627,98.56,4.39989,5.61338,133.080062,-2.4408,5.2956
6:13:07,27.6239,35.2032,16.996,80.7559,22.67,98.56,4.40912,5.61246,132.8749873,-1.8252,4.8996
6:13:08,27.6279,35.2013,17.227,80.7559,22.6672,98.56,4.38402,5.612622,132.9994709,-1.386,4.68
6:13:09,27.6264,35.202,17.175,80.8535,22.6683,98.56,4.36456,5.612554,133.0397816,-1.1196,4.8132
6:13:10,27.6386,35.1983,17.055,80.8291,22.6615,98.56,4.37847,5.613329,133.4479003,-1.0332,4.8132
6:13:11,27.6375,35.1982,17.092,80.8047,22.6618,98.56,4.38649,5.613193,133.6109544,-0.2844,4.8996
6:13:12,27.6257,35.2018,17.271,80.8291,22.6683,98.56,4.37778,5.612452,134.2156627,-0.198,4.9464
6:13:13,27.6211,35.2027,17.494,80.8047,22.6705,98.56,4.38396,5.612094,135.4058782,-0.1548,4.9464
6:13:14,27.6193,35.2031,17.68,80.8291,22.6713,98.56,4.3927,5.611975,135.4862831,0.2412,4.8132
6:13:15,27.6123,35.2047,17.844,80.7803,22.6748,98.56,4.39135,5.611464,135.877081,0.1116,5.0328
6:13:16,27.6083,35.2049,17.963,80.8535,22.6763,98.56,4.37304,5.611081,135.9919046,0.1116,5.2956
6:13:17,27.6091,35.2055,18.09,80.8535,22.6765,98.56,4.37305,5.611243,137.1501052,0.1116,4.9464
6:13:18,27.6092,35.2051,18.291,80.8291,22.6762,98.56,4.39453,5.611209,137.5675896,0.2412,5.166
6:13:19,27.6097,35.2048,18.499,80.8047,22.6758,98.56,4.38119,5.611243,138.3575552,0.1116,4.9464
6:13:20,27.61,35.2047,18.506,80.8291,22.6756,98.56,4.37324,5.611243,138.247056,0.4608,4.9464
6:13:21,27.6138,35.2036,18.193,80.8047,22.6735,98.56,4.37989,5.61149,137.8711608,0.8136,5.0328
6:13:22,27.6202,35.2017,17.858,80.8535,22.67,98.56,4.3568,5.611882,137.9823115,0.594,4.9464
6:13:23,27.6206,35.2016,17.85,80.8535,22.6698,98.56,4.36257,5.611899,138.3943462,0.198,5.0328
6:13:24,27.6182,35.202,18.335,80.8291,22.6709,98.56,4.37273,5.611737,139.8403224,-1.1664,4.8132
6:13:25,27.6156,35.2026,19.02,80.8535,22.6722,98.56,4.36134,5.611576,139.765311,-1.5588,5.2956
6:13:26,27.6175,35.2018,19.273,80.8291,22.671,98.56,4.37723,5.611669,138.6574044,-0.1548,5.2956
6:13:27,27.6208,35.2006,18.826,80.8291,22.669,98.56,4.39635,5.611831,138.7306263,0.1116,5.2956
6:13:28,27.6296,35.1984,17.843,80.8535,22.6645,98.56,4.39744,5.612418,139.8403224,-0.504,4.1112
6:13:29,27.6276,35.1988,17.239,80.8291,22.6655,98.56,4.38595,5.612239,139.987105,-1.8684,4.8564
6:13:30,27.6225,35.2002,17.589,80.8291,22.6681,98.56,4.37452,5.611898,141.432221,-4.1976,5.2956
6:13:31,27.6136,35.2022,18.498,80.8291,22.6726,98.56,4.38405,5.611286,143.0613164,-6.57,6.3072
6:13:32,27.6123,35.2019,19.31,80.8291,22.6728,98.56,4.40075,5.611133,141.8967873,-4.5072,6.2208
6:13:33,27.6204,35.1996,19.057,80.8535,22.6684,98.56,4.39161,5.611661,140.5325318,-0.5508,5.562
6:13:34,27.6271,35.1981,18.192,80.8535,22.6651,98.56,4.37704,5.612129,143.4788129,-3.186,4.3308
6:13:35,27.6333,35.1963,17.574,80.8535,22.6617,98.56,4.39162,5.612495,144.3099624,-3.7584,4.0212
6:13:36,27.6321,35.1965,17.738,80.8779,22.6623,98.56,4.39453,5.612401,145.2023422,-5.5152,4.4604
6:13:37,27.6269,35.1975,18.274,80.8291,22.6647,98.56,4.36797,5.612018,145.4392312,-6.57,5.6484
6:13:38,27.6303,35.1962,18.587,80.8291,22.6626,98.56,4.35454,5.612205,146.2507051,-4.5936,4.7268
6:13:39,27.6352,35.1947,18.617,80.8535,22.6599,98.56,4.38083,5.612512,146.2176227,-4.0212,4.68
6:13:40,27.6331,35.1951,18.527,80.8291,22.6609,98.56,4.39463,5.61235,146.0160947,-3.4056,4.8132
6:13:41,27.622,35.1976,18.386,80.8535,22.6664,98.56,4.39305,5.611515,146.7207561,-3.672,4.77
6:13:42,27.6295,35.1958,18.095,80.8291,22.6625,98.56,4.37295,5.612043,147.2891273,-3.5388,4.68
6:13:43,27.6436,35.1916,17.819,80.8535,22.6548,98.56,4.35435,5.612937,147.0545711,-3.0564,4.4172
6:13:44,27.6352,35.1937,17.886,80.8779,22.6591,98.56,4.37285,5.61235,147.6533758,-3.672,4.374
6:13:45,27.6121,35.1996,18.348,80.8535,22.6711,98.56,4.37898,5.610749,147.8836699,-3.8916,4.8132
6:13:46,27.612,35.1994,18.757,80.9023,22.671,98.56,4.37218,5.610724,148.1808383,-3.7152,4.4604
6:13:47,27.6141,35.1987,18.72,80.8779,22.6698,98.56,4.39553,5.610851,148.4770534,-3.6252,3.978
6:13:48,27.6208,35.1967,18.324,80.8535,22.6661,98.56,4.39251,5.611251,148.2158949,-3.0564,4.1112
6:13:49,27.6264,35.1947,17.959,80.8291,22.6627,98.56,4.38894,5.611558,148.2805798,-3.2292,3.9348
6:13:50,27.6286,35.1938,17.944,80.8535,22.6613,98.56,4.4065,5.61166,148.2805798,-3.9348,4.5504
6:13:51,27.6217,35.1956,18.279,80.8535,22.6649,98.56,4.38268,5.611192,147.8187047,-3.672,4.68
6:13:52,27.6287,35.1933,18.592,80.8779,22.661,98.56,4.37788,5.611626,148.048582,-3.4488,4.8132
6:13:53,27.6295,35.1929,18.643,80.8779,22.6604,98.56,4.3977,5.611652,148.3802142,-3.0564,4.8132
6:13:54,27.6286,35.193,18.39,80.8291,22.6607,98.56,4.40097,5.611566,148.5442438,-3.0564,4.9464
6:13:55,27.6312,35.1921,17.958,80.8535,22.6592,98.56,4.37682,5.611694,148.9677812,-2.88,4.8132
6:13:56,27.6349,35.1909,17.749,80.8535,22.6571,98.56,4.389,5.611915,149.4905811,-2.3508,4.0212
6:13:57,27.6337,35.191,18.031,80.8535,22.6576,98.56,4.39137,5.611805,150.2985929,-3.4956,4.5936
6:13:58,27.632,35.1913,18.612,80.8779,22.6584,98.56,4.40152,5.611703,150.9718022,-4.284,4.9464
6:13:59,27.6474,35.1869,18.925,80.8779,22.6501,98.56,4.39839,5.612725,151.2910832,-3.4056,4.284
6:14:00,27.6449,35.1874,18.746,80.8779,22.6513,98.56,4.36796,5.612529,151.578126,-2.79,4.68
6:14:01,27.6549,35.1844,18.298,80.8779,22.6458,98.56,4.37145,5.613134,152.022811,-2.3076,4.0644
6:14:02,27.657,35.1838,17.963,80.8779,22.6446,98.56,4.38518,5.613261,152.4036228,-2.8368,3.8016
6:14:03,27.6363,35.189,17.798,80.8779,22.6553,98.56,4.38535,5.611787,152.2768335,-3.6252,3.9348
6:14:04,27.6261,35.1917,17.805,80.8779,22.6606,98.56,4.38744,5.611089,152.2768335,-4.0644,4.374
6:14:05,27.628,35.1911,18.051,80.8779,22.6595,98.56,4.40088,5.611217,151.9605104,-4.1544,4.5936
6:14:06,27.6301,35.1904,18.438,80.8291,22.6583,98.56,4.37658,5.611371,152.8140379,-3.9348,4.1544
6:14:07,27.6236,35.1921,18.81,80.8779,22.6617,98.56,4.36341,5.610919,152.3078976,-3.9348,5.0328
6:14:08,27.6276,35.1909,18.958,80.8779,22.6595,98.56,4.38981,5.611192,153.6585262,-4.1544,4.1544
6:14:09,27.6345,35.1887,18.675,80.8779,22.6556,98.56,4.39874,5.611601,153.6585262,-3.9348,4.284
6:14:10,27.6374,35.1879,18.033,80.8779,22.654,98.56,4.39274,5.611762,153.5331468,-3.3192,4.284
6:14:11,27.6403,35.187,17.496,80.8779,22.6524,98.56,4.39046,5.611915,153.6585262,-2.9664,4.284
6:14:12,27.6342,35.1885,17.503,80.8535,22.6556,98.56,4.39752,5.611489,154.9328597,-4.5072,3.9348
6:14:13,27.6159,35.1932,18.018,80.8779,22.665,98.56,4.38876,5.610221,154.1255884,-5.6484,5.166
6:14:14,27.6176,35.1921,18.591,80.8779,22.6637,98.56,4.37037,5.61028,154.8392087,-5.2956,4.8564
6:14:15,27.6048,35.1953,18.851,80.8779,22.6702,98.56,4.37062,5.609386,154.7784236,-3.8016,4.1544
6:14:16,27.6202,35.1911,18.71,80.8779,22.662,98.56,4.37429,5.610417,155.3017074,-3.5388,3.8916
6:14:17,27.6318,35.1878,18.404,80.9023,22.6558,98.56,4.37776,5.611166,155.7951652,-3.186,3.6252
6:14:18,27.6353,35.187,18.158,80.8779,22.6541,98.56,4.38749,5.611413,155.3647564,-3.3192,4.0644
6:14:19,27.6455,35.1839,18.054,80.8779,22.6484,98.56,4.36919,5.61206,156.3768031,-3.4488,4.0212
6:14:20,27.6542,35.1816,17.994,80.8779,22.6439,98.56,4.38939,5.612648,157.1077092,-3.0564,4.0212
6:14:21,27.6509,35.1825,17.971,80.9023,22.6457,98.56,4.38074,5.612435,157.6539283,-2.9664,3.6252
6:14:22,27.6574,35.1808,18.15,80.8779,22.6422,98.56,4.35395,5.612886,158.6170319,-2.9664,3.9348
6:14:23,27.6747,35.1758,18.455,80.9023,22.6329,98.56,4.35013,5.614028,159.3976525,-2.9664,3.8448
6:14:24,27.6715,35.1765,18.678,80.9023,22.6344,98.56,4.37601,5.613807,159.4270307,-2.2644,4.1112
6:14:25,27.6669,35.178,18.618,80.8291,22.637,98.56,4.39482,5.613517,160.4979856,-2.88,3.4956
6:14:26,27.664,35.1784,18.379,80.8535,22.6383,98.56,4.35921,5.61327,160.6170764,-2.9664,3.276
6:14:27,27.6612,35.179,18.178,80.8535,22.6397,98.56,4.35134,5.613048,160.5587571,-2.9664,3.0564
6:14:28,27.6579,35.1795,18.126,80.8535,22.6411,98.56,4.36309,5.612767,160.4688072,-2.8368,3.672
6:14:29,27.646,35.183,18.119,80.8779,22.6476,98.56,4.37807,5.611992,160.8549975,-2.2212,3.4056
6:14:30,27.6257,35.1884,18.066,80.8535,22.6583,98.56,4.3682,5.610595,161.179765,-2.2644,3.7584
6:14:31,27.6257,35.1878,18.126,80.8535,22.6578,98.56,4.3847,5.610519,161.8587905,-2.8368,3.5388
6:14:32,27.6149,35.1906,18.372,80.8779,22.6634,98.56,4.39826,5.609769,162.4174243,-3.3624,3.2292
6:14:33,27.6188,35.1895,18.669,80.8779,22.6613,98.56,4.38263,5.610042,161.8008998,-3.1428,3.8016
6:14:34,27.6176,35.1897,18.707,80.8535,22.6618,98.56,4.35983,5.609948,161.4458966,-2.2644,3.672
6:14:35,27.6237,35.1879,18.408,80.8779,22.6585,98.56,4.38222,5.610331,161.622282,-1.9116,3.5388
6:14:36,27.6317,35.1858,18.043,80.8291,22.6543,98.56,4.39714,5.610859,162.0949795,-2.0448,3.276
6:14:37,27.63,35.1862,17.946,80.8779,22.6552,98.56,4.36151,5.610731,162.8568535,-3.0564,3.4056
6:14:38,27.6235,35.1879,18.184,80.8779,22.6585,98.56,4.37266,5.610289,162.8568535,-3.0564,3.2292
6:14:39,27.6142,35.1898,18.601,80.9023,22.663,98.56,4.39844,5.609591,162.0058433,-2.484,4.1976
6:14:40,27.602,35.1927,18.906,80.9023,22.6692,98.56,4.39227,5.608722,162.2418361,-1.4724,3.672
6:14:41,27.6012,35.193,18.988,80.8291,22.6697,98.56,4.36427,5.608688,162.2707117,-1.3392,3.8016
6:14:42,27.6096,35.1907,18.928,80.8779,22.6652,98.56,4.3714,5.60925,162.2707117,-1.296,3.7584
6:14:43,27.6117,35.1902,18.883,80.8779,22.6641,98.56,4.38105,5.609395,163.4411514,-1.8252,3.672
6:14:44,27.6109,35.1902,18.898,80.8779,22.6644,98.56,4.36921,5.609301,164.2285945,-1.296,3.4056
6:14:45,27.6116,35.19,18.853,80.8779,22.664,98.56,4.38165,5.609352,163.995074,-0.1548,3.672
6:14:46,27.6137,35.1891,18.816,80.8535,22.6626,98.56,4.39434,5.609446,165.2145636,0.1116,3.7584
6:14:47,27.6123,35.1895,18.823,80.8535,22.6634,98.56,4.39074,5.609361,165.3306781,0.1116,3.978
6:14:48,27.6058,35.1912,18.927,80.8535,22.6668,98.56,4.38505,5.608918,165.5035511,0.4176,4.5504
6:14:49,27.5897,35.1948,19.113,80.9023,22.6748,98.56,4.38943,5.607718,166.3399893,0.1548,4.77
6:14:50,27.5767,35.1973,19.276,80.9023,22.6808,98.56,4.38783,5.606687,167.2322254,0.1116,4.5504
6:14:51,27.5838,35.1954,19.336,80.8779,22.6771,98.56,4.38318,5.60719,167.8049707,0.198,4.5936
6:14:52,27.5868,35.1945,19.216,80.8291,22.6755,98.56,4.38388,5.607377,168.9187984,0.1116,4.68
6:14:53,27.5954,35.1932,18.985,80.8535,22.6717,98.56,4.37745,5.608101,169.7443839,0.1116,4.8132
6:14:54,27.5976,35.1922,18.746,80.8779,22.6702,98.56,4.37386,5.608177,170.4841756,0.1116,5.166
6:14:55,27.6004,35.191,18.59,80.8779,22.6684,98.56,4.38218,5.608296,171.6163918,0.1116,5.0328
6:14:56,27.6045,35.19,18.641,80.8779,22.6663,98.56,4.36277,5.608586,173.1425238,-0.2844,4.1544
6:14:57,27.5914,35.193,18.939,80.8535,22.6728,98.56,4.37525,5.607641,173.8737278,-1.8252,4.5504
6:14:58,27.5744,35.197,19.289,80.7803,22.6814,98.56,4.39535,5.606415,174.8870166,-1.3392,4.6368
6:14:59,27.5817,35.1949,19.4,80.8291,22.6774,98.56,4.37454,5.606892,175.1101741,-0.2844,4.77
6:15:00,27.5954,35.1913,18.983,80.8779,22.6702,98.56,4.3833,5.60782,176.8494365,-0.2844,4.0644
6:15:01,27.6031,35.1893,18.468,80.8291,22.6663,98.56,4.38383,5.608339,1.35689089,-1.296,3.276
6:15:02,27.6058,35.1886,18.147,80.8779,22.6649,98.56,4.38319,5.608509,0.882389885,-2.4408,3.4056
6:15:03,27.6178,35.1854,17.759,80.8779,22.6586,98.56,4.38994,5.609317,359.7616489,-2.7036,2.5272
6:15:04,27.6099,35.1871,17.745,80.8535,22.6624,98.56,4.39618,5.608721,0.126050817,-3.0564,2.88
6:15:05,27.6084,35.1871,17.834,80.8779,22.6629,98.56,4.39113,5.608568,0.013750987,-2.7036,2.3076
6:15:06,27.6009,35.1891,17.908,80.8535,22.6668,98.56,4.39646,5.608049,1.022210934,-2.9664,2.6604
6:15:07,27.6093,35.1864,17.923,80.8779,22.6621,98.56,4.38686,5.608568,2.393367728,-2.8368,3.3624
6:15:08,27.6075,35.187,17.774,80.8535,22.6631,98.56,4.37498,5.608449,176.9343592,-2.5272,2.6136
6:15:09,27.6179,35.1838,17.721,80.8779,22.6573,98.56,4.38049,5.609096,175.9814178,-1.9548,2.79
6:15:10,27.6364,35.1782,17.729,80.8779,22.6471,98.56,4.39564,5.610271,175.6436164,-2.5704,2.7468
6:15:11,27.6229,35.1825,17.736,80.8779,22.6547,98.56,4.39547,5.609445,175.2504719,-2.8368,2.5272
6:15:12,27.6214,35.1828,17.743,80.8291,22.6554,98.56,4.38854,5.609326,174.4934238,-2.7036,3.0096
6:15:13,27.6332,35.179,17.751,80.8535,22.6488,98.56,4.38455,5.61005,174.8294894,-2.0448,2.9664
6:15:14,27.6483,35.175,17.72,80.8535,22.6408,98.56,4.37455,5.61108,174.4358596,-1.9548,3.0996
6:15:15,27.6528,35.1736,17.616,80.8535,22.6383,98.56,4.38187,5.611353,174.6338572,-1.9548,3.0996
6:15:16,27.6636,35.1717,17.519,80.8535,22.6334,98.56,4.38058,5.612238,174.1825093,-1.9548,3.0996
6:15:17,27.6658,35.1709,17.541,80.8535,22.632,98.56,4.35855,5.612349,174.071921,-2.0448,3.0096
6:15:18,27.6408,35.1775,17.727,80.8291,22.6452,98.56,4.35759,5.610646,174.6614796,-2.3076,3.0096
6:15:19,27.627,35.1809,17.913,80.8291,22.6522,98.56,4.38409,5.609658,174.7167207,-1.9548,3.0564
6:15:20,27.6303,35.1799,17.928,80.7559,22.6503,98.56,4.39489,5.609871,174.6338572,-1.692,3.276
6:15:21,27.6362,35.1777,17.778,80.8779,22.6468,98.56,4.37893,5.610186,174.8870166,-1.9548,3.1428
6:15:22,27.6416,35.1764,17.607,80.8535,22.6441,98.56,4.38249,5.610569,176.0641229,-1.9548,3.276
6:15:23,27.6618,35.1708,17.577,80.8779,22.6333,98.56,4.38745,5.611923,176.9343592,-2.2644,3.0096
6:15:24,27.6588,35.1715,17.666,80.8779,22.6348,98.56,4.39924,5.611702,2.448420814,-2.0016,2.7468
6:15:25,27.6354,35.1779,17.725,80.8047,22.6472,98.56,4.39296,5.610126,176.7943478,-1.9548,3.1428
6:15:26,27.6452,35.1752,17.696,80.8535,22.642,98.56,4.39879,5.610782,176.9894405,-2.0448,3.4056
6:15:27,27.6503,35.1736,17.606,80.8779,22.6391,98.56,4.40364,5.611097,1.748938777,-2.088,2.88
6:15:28,27.6501,35.1736,17.613,80.8779,22.6392,98.56,4.36405,5.61108,0.320858042,-2.8368,2.2644
6:15:29,27.6534,35.1728,17.777,80.8535,22.6375,98.56,4.35969,5.61131,0.126050817,-2.9232,2.394
6:15:30,27.6595,35.1708,17.97,80.8291,22.6341,98.56,4.38293,5.611693,0.742574091,-2.4408,3.0096
6:15:31,27.6551,35.1721,17.903,80.8291,22.6364,98.56,4.39076,5.611395,0.293355673,-2.6604,2.79
6:15:32,27.6579,35.1712,17.531,80.8535,22.6348,98.56,4.37669,5.611557,0.041252965,-2.9664,2.8368
6:15:33,27.6603,35.1708,17.195,80.8779,22.6338,98.56,4.3846,5.611744,358.9777891,-3.1428,1.8252
6:15:34,27.6453,35.1744,17.247,80.8291,22.6414,98.56,4.39157,5.610671,359.1176101,-4.2408,1.8684
6:15:35,27.6431,35.1749,17.336,80.8291,22.6424,98.56,4.389,5.610501,0.79758301,-3.8448,2.5272
6:15:36,27.6379,35.1759,17.396,80.8047,22.6449,98.56,4.38842,5.610092,1.441713947,-3.3192,3.0096
6:15:37,27.6126,35.1826,17.403,80.8535,22.6581,98.56,4.37977,5.608355,1.664103389,-3.8448,2.394
6:15:38,27.6167,35.181,17.403,80.8291,22.6556,98.56,4.3762,5.608559,1.274363205,-4.1544,1.8684
6:15:39,27.6158,35.1811,17.462,80.8779,22.656,98.56,4.3891,5.608491,1.888810987,-3.8016,1.9116
6:15:40,27.6156,35.1811,17.485,80.8535,22.656,98.56,4.40011,5.608466,1.748938777,-3.9348,2.0016
6:15:41,27.6226,35.179,17.38,80.8291,22.6521,98.56,4.38015,5.6089,2.365842017,-3.8016,2.7468
6:15:42,27.6241,35.1787,17.224,80.8291,22.6515,98.56,4.36046,5.609019,2.70077718,-3.8016,3.0096
6:15:43,27.6202,35.1796,17.216,80.8291,22.6534,98.56,4.37868,5.608729,2.618182291,-3.978,2.9232
6:15:44,27.6139,35.1812,17.387,80.7559,22.6566,98.56,4.39377,5.608295,2.840742545,-4.1112,2.8368
6:15:45,27.5897,35.1868,17.596,80.8535,22.6687,98.56,4.39495,5.606516,177.3542867,-3.8016,2.79
6:15:46,27.5815,35.1882,17.633,80.8535,22.6724,98.56,4.3994,5.605852,1.721424185,-3.8016,2.9232
6:15:47,27.5959,35.1844,17.521,80.8291,22.6649,98.56,4.37077,5.606831,1.022210934,-3.5388,2.6604
6:15:48,27.6061,35.1821,17.364,80.8291,22.6599,98.56,4.37834,5.607589,0.882389885,-3.4488,3.1428
6:15:49,27.6055,35.1824,17.304,80.8047,22.6602,98.56,4.37562,5.607563,359.5095421,-3.276,2.7468
6:15:50,27.5999,35.1838,17.356,80.7803,22.6631,98.56,4.38663,5.607171,359.1749123,-3.4488,3.1428
6:15:51,27.5956,35.1847,17.453,80.8291,22.6652,98.56,4.40646,5.606839,357.9988245,-3.6252,3.0096
6:15:52,27.6075,35.1813,17.505,80.8291,22.6588,98.56,4.39879,5.607631,183.5132866,-2.9232,2.79
6:15:53,27.6102,35.1805,17.512,80.7559,22.6573,98.56,4.38399,5.60781,184.524191,-3.0564,2.5704
6:15:54,27.6058,35.1815,17.489,80.8047,22.6595,98.56,4.3885,5.607478,184.8047238,-2.79,2.484
6:15:55,27.6072,35.1811,17.459,80.8291,22.6587,98.56,4.39117,5.607563,186.1262722,-3.2292,2.2212
6:15:56,27.6145,35.1791,17.437,80.8535,22.6549,98.56,4.37641,5.608057,186.2945636,-2.9232,2.0016
6:15:57,27.6126,35.1796,17.414,80.8291,22.6559,98.56,4.36644,5.607921,186.098613,-3.0564,2.5272
6:15:58,27.6117,35.1799,17.421,80.8291,22.6564,98.56,4.39365,5.607878,186.0409942,-2.7036,2.8368
6:15:59,27.6123,35.1796,17.444,80.8291,22.656,98.56,4.38968,5.607895,185.7875435,-2.7036,2.7468
6:16:00,27.6045,35.1813,17.481,80.8291,22.6598,98.56,4.38035,5.607316,186.3798827,-2.9232,2.2644
6:16:01,27.59,35.1849,17.465,80.8047,22.6672,98.56,4.36958,5.606277,186.098613,-3.3192,2.6136
6:16:02,27.5869,35.1853,17.42,80.8291,22.6685,98.56,4.37401,5.606005,186.8020791,-3.186,2.3508
6:16:03,27.6006,35.181,17.413,80.7803,22.6608,98.56,4.39036,5.606856,186.2945636,-3.582,3.0564
6:16:04,27.598,35.1822,17.435,80.8047,22.6626,98.56,4.40301,5.606746,186.774383,-3.672,2.88
6:16:05,27.5966,35.1824,17.464,80.8047,22.6631,98.53,4.39943,5.606618,187.78869,-3.672,2.484
6:16:06,27.5959,35.1825,17.456,80.8291,22.6635,98.56,4.40586,5.606558,188.5805682,-3.0564,2.1744
6:16:07,27.6068,35.1797,17.441,80.8535,22.6578,98.56,4.39852,5.607333,188.4971375,-3.4056,2.3508
6:16:08,27.614,35.1775,17.426,80.8291,22.6538,98.56,4.39201,5.607776,188.9771178,-3.672,2.6604
6:16:09,27.6102,35.1782,17.411,80.8291,22.6556,98.56,4.38065,5.607469,189.1767149,-3.9348,2.5704
6:16:10,27.6121,35.1778,17.419,80.8047,22.6547,98.56,4.39152,5.607631,189.9995242,-3.4956,2.1744
6:16:11,27.6124,35.1777,17.374,80.8047,22.6545,98.56,4.3985,5.607648,190.7660944,-2.9664,2.2212
6:16:12,27.6181,35.176,17.366,80.7803,22.6514,98.56,4.39208,5.607997,191.7358526,-2.8368,1.8684
6:16:13,27.6105,35.1779,17.403,80.8047,22.6553,98.56,4.38155,5.607461,192.7395769,-3.8016,1.4292
6:16:14,27.6045,35.1793,17.433,80.8047,22.6583,98.56,4.3694,5.607018,193.226433,-3.9348,1.386
6:16:15,27.6134,35.1758,17.388,80.8047,22.6527,98.56,4.37502,5.607469,193.8605727,-3.4056,1.6056
6:16:16,27.6105,35.1772,17.366,80.6339,22.6547,98.56,4.3587,5.607367,193.4007125,-3.5388,2.0016
6:16:17,27.6064,35.1784,17.403,80.7803,22.6569,98.56,4.36138,5.607095,193.7166225,-3.8016,1.7352
6:16:18,27.6018,35.1792,17.5,80.8047,22.6591,98.56,4.38398,5.606737,193.5444702,-4.0212,1.8252
6:16:19,27.5998,35.1797,17.559,80.7559,22.66,98.56,4.38321,5.606584,195.0748091,-3.9348,0.6804
6:16:20,27.6007,35.1794,17.521,80.8291,22.6596,98.56,4.35506,5.606643,194.40888,-3.8016,1.2096
6:16:21,27.5992,35.1796,17.469,80.8291,22.6602,98.56,4.34841,5.606499,193.6600107,-3.9348,1.5156
6:16:22,27.5977,35.1798,17.446,80.8291,22.6608,98.56,4.37506,5.606362,194.8138821,-4.0212,0.9468
6:16:23,27.5978,35.1796,17.498,80.8291,22.6606,98.56,4.39369,5.606362,194.6693219,-4.1544,1.1196
6:16:24,27.5963,35.18,17.55,80.8291,22.6614,98.56,4.38829,5.60626,194.6693219,-4.3308,1.1664
6:16:25,27.5914,35.1811,17.595,80.8291,22.6639,98.56,4.37729,5.605903,194.5248571,-4.0212,1.386
6:16:26,27.5889,35.1817,17.737,80.8047,22.6651,98.56,4.38422,5.605716,194.8423315,-3.9348,1.4724
