Time [LST],"Temperature [ITS-90, deg C]","Salinity, Practical [PSU]","Depth [salt water, m], lat = 33.00","Beam Transmission, Chelsea/Seatech/WET Labs CStar [%]","Density [sigma-t, Kg/m^3 ]",Altimeter [m],"Oxygen, SBE 43 [ml/l]",Conductivity [S/m],Heading [deg],Pitching [deg],Rolling [deg]
8:52:10,25.1852,34.6223,12.639,79.9505,22.9995,1.49,2.98036,5.275863,7.478838199,-5.8248,10.0008
8:52:11,25.1454,34.6542,12.877,79.9505,23.0357,1.49,3.01767,5.276079,9.401976769,-5.9112,11.0556
8:52:12,25.1266,34.6662,13.108,79.9261,23.0505,2.03,3.01841,5.27576,8.524945736,-4.5504,10.6596
8:52:13,25.1329,34.6594,13.257,79.9261,23.0434,15.04,3.06162,5.275492,8.72197893,-3.8916,11.2752
8:52:14,25.1589,34.6379,13.257,79.9261,23.0193,98.61,3.19758,5.275291,7.224646929,-4.0212,11.3184
8:52:15,25.1773,34.6215,13.16,79.9505,23.0013,98.58,3.24927,5.274971,5.647042802,-3.7152,10.5732
8:52:16,25.1828,34.6108,13.048,79.9505,22.9915,98.61,3.17262,5.274086,4.356383613,-3.276,10.2636
8:52:17,25.1848,34.6049,12.862,79.9505,22.9864,98.58,3.14151,5.273476,4.383965781,-3.4488,10.1772
8:52:18,25.185,34.6037,12.713,79.9505,22.9855,53.48,3.12695,5.273335,3.40307799,-3.6252,9.2952
8:52:19,25.18,34.6042,12.802,79.9505,22.9874,1.07,3.08723,5.272889,4.466718419,-4.0212,10.4832
8:52:20,25.1608,34.6156,13.1,79.9505,23.0018,1.22,3.05229,5.272451,6.040994158,-4.284,11.0556
8:52:21,25.1683,34.6071,13.345,79.9505,22.9932,1.39,2.96063,5.272087,5.676982678,-3.9348,10.44
8:52:22,25.1891,34.5907,13.352,79.9261,22.9744,1.37,2.90448,5.27202,5.928079033,-3.3192,10.836
8:52:23,25.1963,34.581,13.143,79.9505,22.9649,1.2,2.93879,5.27144,5.36614281,-3.7584,10.836
8:52:24,25.2011,34.5754,12.889,79.8773,22.9592,1.27,2.94805,5.271172,3.290586382,-3.7584,9.738
8:52:25,25.1956,34.5795,12.747,79.8773,22.9639,1.42,2.93991,5.271142,2.925647784,-3.978,9.8244
8:52:26,25.1835,34.5851,12.784,79.9261,22.9718,53.04,2.94356,5.27066,3.543136968,-3.8448,10.5732
8:52:27,25.2028,34.5697,12.977,79.9261,22.9544,98.58,3.00631,5.270578,3.85088314,-3.582,11.142
8:52:28,25.212,34.5531,13.185,79.9017,22.939,98.61,3.12492,5.269277,4.04615239,-4.374,11.1852
8:52:29,25.2137,34.5466,13.259,79.9017,22.9336,98.58,3.24711,5.268579,3.935877056,-4.5072,10.9656
8:52:30,25.2156,34.5394,13.139,79.9017,22.9276,98.58,3.37374,5.267798,4.158740617,-3.7584,11.4516
8:52:31,25.218,34.5343,12.915,79.9017,22.923,98.58,3.41478,5.267338,2.673244935,-3.5388,11.142
8:52:32,25.2179,34.5328,12.751,79.9017,22.9219,98.58,3.35604,5.267122,1.888810987,-4.3308,10.7028
8:52:33,25.215,34.5294,12.758,79.9261,22.9202,98.61,3.28502,5.266364,2.001175469,-4.5936,10.6164
8:52:34,25.2176,34.5214,12.906,79.9261,22.9134,98.61,3.24155,5.265555,3.543136968,-4.9464,11.0556
8:52:35,25.223,34.5118,13.092,79.8773,22.9044,98.58,3.2446,5.264819,5.36614281,-4.3308,10.8792
8:52:36,25.2265,34.5043,13.173,79.9261,22.8977,98.61,3.34833,5.264166,6.407556781,-4.374,10.44
8:52:37,25.2282,34.4978,13.128,79.8529,22.8923,98.61,3.4558,5.26346,6.887485576,-4.5072,10.0872
8:52:38,25.2284,34.4944,12.993,79.9017,22.8897,98.61,3.46514,5.263014,7.169206185,-4.0212,9.8244
8:52:39,25.2291,34.4963,12.889,79.9017,22.8909,98.61,3.36944,5.263341,6.91518827,-4.4604,9.1656
8:52:40,25.2177,34.5021,12.888,79.9017,22.8987,98.58,3.24777,5.262948,7.423365834,-3.9348,9.2952
8:52:41,25.2235,34.4997,12.917,79.9261,22.8952,98.58,3.19841,5.26323,8.270111931,-3.4056,9.4284
8:52:42,25.1807,34.5844,12.968,79.9017,22.9722,98.61,3.14913,5.270288,9.09082809,-3.7584,9.0756
8:52:43,25.1146,34.7332,13.012,79.9017,23.1048,98.61,3.45073,5.283576,9.77153967,-4.1112,8.946
8:52:44,25.115,34.7336,13.018,79.9017,23.1049,98.61,4.33979,5.283673,10.59584097,-4.1544,8.856
8:52:45,25.1152,34.7335,12.965,79.9017,23.1048,98.61,4.68488,5.28368,11.53695903,-3.8916,9.0324
8:52:46,25.1155,34.7333,12.904,79.9017,23.1045,98.61,4.59361,5.28368,11.48082647,-3.0996,8.856
8:52:47,25.1156,34.7329,12.918,79.9017,23.1042,98.61,4.53468,5.283635,12.30994665,-3.3624,8.856
8:52:48,25.1147,34.733,13.066,79.9017,23.1046,98.61,4.5324,5.283569,12.73957692,-3.7584,8.6796
8:52:49,25.1146,34.7333,13.229,79.9017,23.1048,98.61,4.54457,5.283606,13.91723321,-3.8016,8.856
8:52:50,25.1147,34.7334,13.19,79.9017,23.1049,98.61,4.54864,5.283621,14.0046121,-3.276,8.8128
8:52:51,25.1142,34.7332,12.937,79.8773,23.1049,98.61,4.5353,5.283539,13.88890121,-3.1428,8.8128
8:52:52,25.1147,34.7333,12.69,79.8773,23.1048,73.38,4.52257,5.283591,13.2852972,-2.9232,8.0676
8:52:53,25.115,34.7332,12.644,79.8041,23.1047,52.38,4.50919,5.283613,14.5248571,-3.582,8.154
8:52:54,25.1143,34.7334,12.785,79.7065,23.105,98.61,4.52946,5.283561,15.2766537,-3.8916,8.2404
8:52:55,25.1141,34.7334,13.001,79.8773,23.105,98.61,4.55189,5.283546,15.1602727,-3.5388,7.9776
8:52:56,25.1142,34.7333,13.186,79.8773,23.105,98.61,4.54303,5.283554,16.64494355,-3.6252,7.9344
8:52:57,25.1139,34.7334,13.26,79.8773,23.1051,98.61,4.51252,5.283539,17.70041734,-3.8916,8.1972
8:52:58,25.1143,34.7334,13.229,79.8773,23.105,98.61,4.50274,5.283576,18.79118205,-3.8916,8.55
8:52:59,25.1143,34.7333,13.049,79.8773,23.1049,98.61,4.52815,5.283561,20.06707575,-3.8916,8.8128
8:53:00,25.1153,34.7331,12.743,79.8773,23.1045,98.61,4.53834,5.28362,20.42371726,-3.8916,7.6248
8:53:01,25.1153,34.7332,12.467,79.8773,23.1046,98.61,4.52922,5.283635,20.18423753,-3.276,6.9228
8:53:02,25.1142,34.7333,12.429,79.8773,23.105,98.61,4.52714,5.283524,20.3332579,-3.7584,6.4404
8:53:03,25.1138,34.7334,12.681,79.8773,23.1052,98.61,4.53197,5.283509,21.29193,-4.4172,7.362
8:53:04,25.1136,34.7335,13.127,79.8773,23.1053,98.61,4.53583,5.283524,21.77483515,-5.0328,8.3304
8:53:05,25.114,34.7334,13.513,79.8285,23.1051,98.61,4.52775,5.283554,21.53318183,-4.3308,8.46
8:53:06,25.1143,34.7334,13.587,79.8285,23.105,98.61,4.52669,5.283599,21.65395791,-3.8916,8.1972
8:53:07,25.1147,34.7332,13.25,79.8773,23.1048,98.61,4.50701,5.283598,21.62190545,-3.0564,8.1972
8:53:08,25.1151,34.7331,12.646,79.8529,23.1046,98.61,4.49945,5.283606,20.6635703,-2.9232,7.8444
8:53:09,25.115,34.7332,12.22,79.8773,23.1046,98.61,4.51645,5.283583,20.78363867,-3.4488,7.5816
8:53:10,25.1143,34.7336,12.249,79.8529,23.1052,98.61,4.52945,5.283568,22.61891002,-5.2956,7.7148
8:53:11,25.1142,34.7337,12.68,79.8529,23.1052,98.61,4.52648,5.283591,24.8219613,-6.1776,9.252
8:53:12,25.1144,34.7335,13.171,79.8285,23.1051,98.61,4.54154,5.283613,25.37620879,-5.562,8.3736
8:53:13,25.1151,34.7334,13.342,79.8285,23.1047,98.61,4.5488,5.283673,25.40665155,-3.0564,8.1972
8:53:14,25.1157,34.7332,13.178,79.8529,23.1044,98.61,4.53251,5.283703,27.12414428,-3.6252,7.8012
8:53:15,25.1166,34.7332,12.902,79.8529,23.1041,98.61,4.53376,5.283777,27.53432987,-3.8916,7.1856
8:53:16,25.117,34.7332,12.76,79.8285,23.104,98.61,4.54407,5.283814,29.73307376,-4.2408,7.5816
8:53:17,25.1178,34.7332,12.759,79.8285,23.1038,98.61,4.53935,5.283896,30.96537651,-4.4172,7.5816
8:53:18,25.1192,34.7332,12.818,79.8529,23.1034,98.58,4.52994,5.284052,32.08115999,-3.8916,7.7148
8:53:19,25.1193,34.7333,12.802,79.8529,23.1034,98.61,4.52739,5.284074,32.74628922,-3.8916,6.9228
8:53:20,25.1193,34.7333,12.757,79.8529,23.1034,98.61,4.5259,5.284074,33.74929486,-3.8916,6.7896
8:53:21,25.1194,34.7334,12.764,79.8285,23.1034,98.58,4.53057,5.284082,33.6143403,-3.8916,6.1776
8:53:22,25.1192,34.7334,12.882,79.8285,23.1035,98.58,4.53172,5.284074,33.85134018,-4.0212,6.0444
8:53:23,25.1191,34.7332,13.008,79.8285,23.1034,98.58,4.54153,5.284052,33.38073489,-3.6252,6.3072
8:53:24,25.1183,34.7332,12.97,79.8041,23.1037,98.58,4.54877,5.28397,32.34662416,-2.9232,6.3972
8:53:25,25.1167,34.7333,12.843,79.8285,23.1042,98.58,4.5456,5.283799,31.95141797,-2.9664,6.3072
8:53:26,25.1163,34.7332,12.82,79.8285,23.1042,98.58,4.52907,5.283747,30.37915924,-3.4956,6.0444
8:53:27,25.116,34.7333,12.879,79.8285,23.1044,98.58,4.52552,5.283725,29.31692257,-3.0564,5.9112
8:53:28,25.1159,34.7333,12.871,79.8285,23.1044,98.58,4.54061,5.28371,27.88121256,-2.79,5.8248
8:53:29,25.1161,34.7334,12.758,79.8529,23.1044,98.58,4.53799,5.283747,26.99803874,-2.1744,6.1776
8:53:30,25.1165,34.7334,12.683,79.8285,23.1043,98.58,4.54912,5.283784,26.43357597,-2.9232,6.5268
8:53:31,25.1172,34.7333,12.741,79.8285,23.1041,98.61,4.54658,5.283851,25.62505043,-2.9232,6.4404
8:53:32,25.1176,34.7334,12.875,79.8529,23.104,98.58,4.51353,5.283918,25.53103941,-2.9232,6.3504
8:53:33,25.1178,34.7334,12.986,79.8285,23.1039,98.58,4.51464,5.28394,25.03678236,-2.7468,6.5268
8:53:34,25.1179,34.7334,13.022,79.8285,23.1039,98.61,4.53403,5.28394,25.00643195,-2.9664,6.66
8:53:35,25.1182,34.7334,12.94,79.8285,23.1038,98.58,4.52316,5.283978,25.00643195,-2.9232,7.056
8:53:36,25.1188,34.7335,12.805,79.8285,23.1037,98.61,4.51983,5.284044,24.6049914,-2.9232,6.7032
8:53:37,25.119,34.7335,12.648,79.8041,23.1036,98.58,4.51574,5.284059,24.2048348,-2.9232,6.4836
8:53:38,25.1186,34.7334,12.551,79.8285,23.1037,98.58,4.51571,5.284,23.6857481,-2.9232,6.3972
8:53:39,25.1174,34.7334,12.572,79.8285,23.104,98.58,4.52515,5.283873,23.6857481,-2.9232,6.4404
8:53:40,25.1177,34.7334,12.743,79.8285,23.1039,98.61,4.52522,5.283918,24.26766873,-3.6252,6.9228
8:53:41,25.1183,34.7333,12.965,79.8041,23.1037,98.58,4.52677,5.283978,24.94322599,-3.8916,7.0992
8:53:42,25.1184,34.7332,13.091,79.8041,23.1036,98.58,4.52684,5.283978,25.43963988,-3.4956,7.056
8:53:43,25.1187,34.7333,13.046,79.8285,23.1036,98.58,4.52932,5.284022,25.59455228,-3.4488,7.056
8:53:44,25.1194,34.7333,12.866,79.8041,23.1033,98.58,4.53998,5.284082,26.15493543,-3.4488,7.056
8:53:45,25.1195,34.7333,12.635,79.8041,23.1033,98.58,4.54237,5.284082,24.66550314,-2.9232,6.1776
8:53:46,25.1197,34.7331,12.455,79.8041,23.1032,98.58,4.53185,5.284081,25.22157637,-3.672,6.5268
8:53:47,25.119,34.7331,12.476,79.7797,23.1034,98.58,4.53084,5.284,25.19118005,-3.8916,6.57
8:53:48,25.1192,34.7331,12.661,79.8041,23.1033,98.58,4.54387,5.28403,26.02989198,-3.3624,7.3188
8:53:49,25.1193,34.7331,12.869,79.7797,23.1033,98.58,4.54758,5.284052,26.02989198,-3.1428,7.0992
8:53:50,25.1183,34.7332,13.025,79.8041,23.1036,98.58,4.54093,5.283955,26.43357597,-3.8916,7.056
8:53:51,25.1178,34.7331,13.069,79.8041,23.1037,98.58,4.5183,5.283896,26.37216635,-3.8916,6.57
8:53:52,25.1179,34.733,12.949,79.8041,23.1036,98.58,4.5085,5.283881,26.02989198,-3.4956,6.9228
8:53:53,25.1179,34.7329,12.583,79.8041,23.1035,98.58,4.50752,5.283858,26.06050251,-2.6136,6.7896
8:53:54,25.1181,34.7329,12.016,79.8041,23.1035,98.58,4.51761,5.283851,25.22157637,-2.1312,6.4836
8:53:55,25.118,34.7331,11.77,79.8041,23.1037,98.58,4.53042,5.283865,25.87441156,-3.8448,6.3504
8:53:56,25.1175,34.7332,11.963,79.7797,23.1039,98.58,4.54642,5.283836,27.94605215,-5.6484,6.9228
8:53:57,25.1172,34.7331,12.32,79.7797,23.1039,98.58,4.54343,5.283806,28.83441858,-5.6484,6.9228
8:53:58,25.1177,34.7329,12.364,79.8041,23.1036,98.58,4.54528,5.283836,29.18820843,-3.276,6.966
8:53:59,25.1188,34.7331,11.924,79.7797,23.1034,98.58,4.52695,5.283955,29.96031225,-2.9232,7.4952
8:54:00,25.1194,34.7331,11.186,79.7797,23.1032,98.58,4.53517,5.283984,30.05558953,-3.2292,6.9228
8:54:01,25.1179,34.7332,10.671,79.8041,23.1038,98.58,4.54753,5.283828,29.96031225,-4.0212,6.3072
8:54:02,25.1167,34.7334,10.626,79.7797,23.1043,98.58,4.54798,5.283716,32.51225574,-5.6916,7.3188
8:54:03,25.1168,34.7334,10.879,79.7553,23.1042,98.58,4.54957,5.283739,34.52738011,-6.0444,7.9344
8:54:04,25.1162,34.7334,11.064,79.7797,23.1044,98.58,4.54505,5.283679,34.52738011,-4.7268,7.2756
8:54:05,25.1156,34.7335,10.989,79.7797,23.1047,35.68,4.53317,5.283634,35.34651451,-3.8916,7.1856
8:54:06,25.116,34.7333,10.669,79.7797,23.1044,1.54,4.52324,5.283634,37.36136344,-3.8916,7.1856
8:54:07,25.1158,34.7333,10.378,79.7797,23.1045,1.59,4.5155,5.283604,37.60685855,-3.8916,6.7032
8:54:08,25.1164,34.7333,10.161,79.7797,23.1043,2.1,4.50055,5.283649,37.99843856,-3.8916,6.0444
8:54:09,25.1175,34.7334,10.116,79.7797,23.104,1.83,4.51806,5.283775,39.36067519,-3.8916,6.3072
8:54:10,25.1192,34.7335,10.242,79.7797,23.1036,1.39,4.53416,5.283976,42.28044199,-4.3308,6.6168
8:54:11,25.121,34.7337,10.472,79.7797,23.1032,1.37,4.54788,5.284199,46.18673788,-4.8996,6.7032
8:54:12,25.1224,34.734,10.657,79.7553,23.103,1.34,4.55187,5.284393,49.48183262,-4.8132,5.8248
8:54:13,25.1225,34.7339,10.716,79.7553,23.1029,12.43,4.54295,5.284393,52.59862082,-4.4172,4.9464
8:54:14,25.1219,34.7339,10.604,79.6333,23.1031,35.68,4.54439,5.284333,53.29466558,-3.4956,4.374
8:54:15,25.1216,34.7338,10.327,79.7553,23.1031,70.84,4.53453,5.284281,51.32654527,-2.1312,3.7152
8:54:16,25.1212,34.7339,10.073,79.7309,23.1033,98.58,4.54054,5.284236,50.08882245,-2.484,3.672
8:54:17,25.1195,34.7339,9.983,79.7553,23.1038,98.58,4.54742,5.28405,48.20722126,-3.276,3.978
8:54:18,25.1159,34.7339,10.124,79.7553,23.1049,98.58,4.542,5.283694,44.71332573,-3.8916,3.4056
8:54:19,25.1168,34.7339,10.422,79.7797,23.1046,94.36,4.52304,5.28379,41.82979168,-4.1544,4.1976
8:54:20,25.1156,34.7337,10.659,79.7553,23.1049,31.7,4.53872,5.283649,37.36136344,-3.4488,5.3424
8:54:21,25.116,34.7336,10.733,79.7797,23.1046,98.58,4.55128,5.283686,33.91759695,-3.1428,6.0444
8:54:22,25.1153,34.7338,10.688,79.7797,23.105,98.58,4.53263,5.283627,31.78410514,-3.276,6.3972
8:54:23,25.1148,34.7337,10.516,79.7797,23.1051,98.58,4.52683,5.28356,29.8307758,-2.9232,6.7896
8:54:24,25.1137,34.7337,10.307,79.7553,23.1054,98.58,4.53466,5.283441,26.84124747,-2.9232,6.1776
8:54:25,25.1143,34.7336,10.113,79.7797,23.1052,98.58,4.52119,5.283478,25.87441156,-2.1744,6.5268
8:54:26,25.1129,34.7339,10.15,79.7797,23.1058,98.58,4.53103,5.283366,26.21623008,-2.0448,6.6168
8:54:27,25.1122,34.7341,10.529,79.7797,23.1062,98.58,4.53556,5.283344,27.88121256,-3.276,7.362
8:54:28,25.1116,34.7342,11.005,79.7553,23.1065,98.58,4.52544,5.283322,29.2197153,-3.7152,7.2324
8:54:29,25.1125,34.734,11.176,79.7553,23.106,98.58,4.51108,5.283389,30.09001774,-2.3076,7.1856
8:54:30,25.1135,34.7339,11.011,79.7065,23.1056,98.58,4.54187,5.283471,32.04870725,-2.79,7.6716
8:54:31,25.1149,34.7337,10.84,79.7309,23.105,98.58,4.55316,5.28359,32.77899386,-2.9664,6.8796
8:54:32,25.1152,34.7337,10.891,79.7553,23.1049,98.58,4.55542,5.28362,34.22193677,-3.5388,7.2324
8:54:33,25.1159,34.734,11.084,79.7797,23.105,98.58,4.56053,5.283739,36.5211871,-3.8916,7.3188
8:54:34,25.1169,34.734,11.292,79.7797,23.1046,98.58,4.53937,5.28385,37.74874785,-3.8448,7.3188
8:54:35,25.1172,34.734,11.447,79.7553,23.1046,98.58,4.53369,5.283895,39.36067519,-3.4956,6.9228
8:54:36,25.1172,34.734,11.491,79.7797,23.1046,98.58,4.53546,5.283895,39.18009184,-3.0564,6.264
8:54:37,25.1173,34.7341,11.513,79.7553,23.1046,98.58,4.52934,5.28391,40.45419984,-3.0564,6.1776
8:54:38,25.1177,34.734,11.653,79.7553,23.1044,98.58,4.53046,5.283955,40.97123129,-3.582,6.0444
8:54:39,25.1184,34.7341,11.943,79.7797,23.1043,98.58,4.52191,5.284044,41.26937365,-3.8916,6.5268
8:54:40,25.1177,34.734,12.27,79.7553,23.1044,98.58,4.51493,5.283985,41.12013318,-3.8916,6.66
8:54:41,25.1179,34.7339,12.516,79.7553,23.1043,98.58,4.53267,5.284,42.16902496,-3.7584,6.66
8:54:42,25.1184,34.7341,12.679,79.7553,23.1043,98.58,4.53486,5.284082,42.12883925,-3.4056,6.0012
8:54:43,25.1186,34.7341,12.724,79.7797,23.1042,98.58,4.5414,5.284104,42.20614213,-2.9232,5.472
8:54:44,25.1191,34.7341,12.723,79.7553,23.1041,98.58,4.55577,5.284149,42.28044199,-2.5704,5.6916
8:54:45,25.1203,34.7343,12.812,79.7553,23.1038,98.58,4.55613,5.284305,42.32072434,-3.0564,5.562
8:54:46,25.1209,34.7342,13.132,79.7553,23.1036,98.58,4.54478,5.284379,42.54740656,-3.8016,6.0444
8:54:47,25.1212,34.7341,13.563,79.7797,23.1034,98.58,4.54754,5.284402,41.9036523,-3.8016,6.0444
8:54:48,25.1192,34.734,13.808,79.7309,23.1039,98.58,4.54274,5.284201,41.26937365,-3.0564,6.0444
8:54:49,25.1185,34.734,13.823,79.7309,23.1042,98.58,4.52371,5.284134,41.52907318,-2.9232,6.0444
8:54:50,25.1164,34.734,13.874,79.7553,23.1048,98.58,4.52603,5.283911,42.35793096,-3.276,6.2208
8:54:51,25.1146,34.7342,14.127,79.7553,23.1055,98.58,4.53884,5.28377,42.65949844,-3.8916,6.1308
8:54:52,25.1152,34.734,14.447,79.7309,23.1052,98.58,4.54258,5.283815,42.28044199,-3.5388,6.0444
8:54:53,25.1059,34.7364,14.632,79.7309,23.1098,98.58,4.5267,5.283175,42.16902496,-2.9232,5.9544
8:54:54,25.1092,34.7353,14.714,79.7553,23.108,98.58,4.51466,5.283384,41.60565378,-2.8368,5.7816
8:54:55,25.1006,34.7375,14.832,79.7553,23.1122,98.58,4.53756,5.282781,41.71608985,-2.9232,6.3072
8:54:56,25.0897,34.7404,15.04,79.7309,23.1178,98.58,4.54877,5.282045,41.98068141,-2.9232,6.1776
8:54:57,25.0716,34.7441,15.248,79.7553,23.1261,98.58,4.55908,5.280684,42.20614213,-3.186,6.1308
8:54:58,25.0595,34.7473,15.419,79.7309,23.1322,98.58,4.55415,5.279867,42.05471713,-3.4488,6.0444
8:54:59,25.0553,34.7481,15.538,79.7065,23.134,98.58,4.54297,5.279539,41.75294405,-3.0564,5.9112
8:55:00,25.0538,34.7482,15.679,79.7309,23.1346,98.58,4.54783,5.279398,41.34259557,-2.9232,5.7348
8:55:01,25.0544,34.7478,15.939,79.7309,23.1341,98.58,4.54287,5.279436,41.37923741,-2.9232,5.5152
8:55:02,25.0614,34.7455,16.311,79.7553,23.1303,98.58,4.5452,5.27986,41.98068141,-3.276,6.5268
8:55:03,25.0519,34.7481,16.683,79.7553,23.1351,98.58,4.54452,5.279235,42.32072434,-3.9348,6.9228
8:55:04,25.0562,34.7471,16.906,79.7309,23.133,98.58,4.53969,5.279562,43.15701348,-4.0212,6.9228
8:55:05,25.0566,34.7467,16.876,79.7065,23.1326,98.58,4.5299,5.279548,43.69663898,-3.8016,6.57
8:55:06,25.0613,34.7455,16.615,79.7309,23.1302,98.58,4.53055,5.27986,43.50358808,-3.0096,6.2208
8:55:07,25.0665,34.7441,16.257,79.7309,23.1277,98.58,4.51883,5.280202,42.54740656,-2.088,5.6916
8:55:08,25.0559,34.747,16.323,79.7309,23.1331,98.58,4.50867,5.279495,42.65949844,-3.7584,5.4288
8:55:09,25.0538,34.7477,16.882,79.7309,23.1342,98.58,4.52784,5.279399,43.85216387,-5.6916,5.9112
8:55:10,25.0527,34.7479,17.552,79.7309,23.1347,98.58,4.54596,5.279332,45.26421347,-6.0012,6.3072
8:55:11,25.0546,34.7473,17.73,79.7309,23.1337,98.58,4.54164,5.279459,43.92848742,-2.6136,6.4404
8:55:12,25.0552,34.7471,17.305,79.7065,23.1333,98.58,4.50818,5.279473,43.38679198,-1.9548,6.3504
8:55:13,25.0602,34.7456,16.634,79.7065,23.1307,98.58,4.49308,5.279763,42.89054697,-2.0448,5.6052
8:55:14,25.0611,34.7455,16.262,79.7309,23.1303,98.58,4.51946,5.27983,42.43241037,-3.276,5.076
8:55:15,25.0617,34.7452,16.299,79.7065,23.1299,98.58,4.52375,5.279845,43.54151643,-4.8132,5.166
8:55:16,25.0583,34.7466,16.626,79.7309,23.132,98.58,4.53319,5.279696,43.89031342,-5.166,5.8248
8:55:17,25.0609,34.7461,17.08,79.7065,23.1308,98.58,4.52967,5.279919,44.3179926,-5.2956,6.1776
8:55:18,25.0709,34.743,17.482,79.7309,23.1255,98.58,4.53582,5.280559,44.55551359,-4.1112,6.264
8:55:19,25.0677,34.7437,17.623,79.7065,23.1269,98.58,4.53357,5.280321,45.62353374,-3.582,6.1308
8:55:20,25.0686,34.7433,17.303,79.7309,23.1264,98.58,4.53012,5.280351,45.30655972,-2.8368,5.6916
8:55:21,25.0774,34.7411,16.625,79.7553,23.122,98.58,4.54471,5.280938,44.63275571,-2.3076,5.562
8:55:22,25.0784,34.7411,16.118,79.7309,23.1217,98.58,4.55519,5.281019,44.55551359,-2.6136,5.166
8:55:23,25.0737,34.7422,16.177,79.7309,23.1241,98.58,4.55483,5.280685,46.7959301,-4.7268,5.868
8:55:24,25.0651,34.7444,16.743,79.7309,23.1283,98.58,4.53439,5.28012,49.74002764,-6.966,6.3972
8:55:25,25.0632,34.7446,17.421,79.7309,23.129,98.58,4.52659,5.279979,51.82067568,-7.2324,6.0876
8:55:26,25.0652,34.744,17.629,79.7065,23.128,98.58,4.53196,5.280113,49.09532118,-1.6488,5.7816
8:55:27,25.0667,34.7437,17.263,79.7065,23.1273,98.58,4.54104,5.280209,50.26417446,-1.9548,5.6916
8:55:28,25.0705,34.7428,16.667,79.7065,23.1254,98.58,4.54048,5.280455,51.19104309,-2.394,6.0444
8:55:29,25.0745,34.7419,16.339,79.7065,23.1236,98.58,4.5379,5.280737,51.68369827,-3.3624,5.8248
8:55:30,25.0735,34.7422,16.457,79.7553,23.1241,98.58,4.54164,5.280678,52.87493794,-4.77,5.7348
8:55:31,25.0672,34.7437,16.874,79.7309,23.1271,98.58,4.55308,5.280246,54.96484894,-5.8248,5.9112
8:55:32,25.0626,34.7446,17.276,79.7309,23.1292,98.58,4.5489,5.279912,56.10284719,-5.0328,5.6484
8:55:33,25.0636,34.7442,17.506,79.7309,23.1286,98.58,4.53492,5.279964,56.20159962,-3.5388,5.2524
8:55:34,25.0641,34.7444,17.505,79.7065,23.1286,98.58,4.54318,5.280039,56.7075813,-2.8368,4.8132
8:55:35,25.0637,34.7443,17.326,79.7065,23.1287,98.58,4.53911,5.279986,57.11900614,-2.484,4.374
8:55:36,25.0643,34.7442,17.102,79.6333,23.1284,98.58,4.52598,5.280016,57.11900614,-2.6604,4.1976
8:55:37,25.0624,34.7446,16.997,79.7309,23.1292,98.58,4.53541,5.27986,58.05972261,-3.4056,3.8016
8:55:38,25.0589,34.7456,17.19,79.7309,23.1311,98.58,4.53534,5.279644,58.86152151,-4.0212,3.6252
8:55:39,25.0566,34.7463,17.688,79.7309,23.1323,98.58,4.54443,5.279526,59.62790244,-4.1544,3.3192
8:55:40,25.0439,34.7503,18.127,79.7309,23.1392,98.58,4.55373,5.278775,58.75531604,-3.6252,3.8448
8:55:41,25.0445,34.7507,18.305,79.6821,23.1393,98.58,4.54333,5.278887,57.95158381,-2.3076,3.9348
8:55:42,25.0553,34.7467,18.103,79.7065,23.133,98.58,4.54043,5.279474,57.63766672,-2.3508,4.0212
8:55:43,25.0557,34.7466,17.656,79.6821,23.1328,98.58,4.54232,5.279466,57.11900614,-2.2212,4.1544
8:55:44,25.056,34.7463,17.215,79.7309,23.1325,98.58,4.54206,5.279444,57.01782845,-2.7036,3.8448
8:55:45,25.0537,34.7471,17.028,79.6821,23.1338,98.58,4.54209,5.279302,57.01782845,-3.2292,4.1544
8:55:46,25.0513,34.7481,17.214,79.7309,23.1353,98.58,4.56399,5.279206,56.35434321,-3.582,4.0644
8:55:47,25.0476,34.7494,17.66,79.7065,23.1374,98.58,4.55724,5.279013,56.45374806,-3.7584,4.5072
8:55:48,25.0436,34.7507,18.129,79.7309,23.1395,98.58,4.53321,5.27879,56.96313867,-3.8916,4.0644
8:55:49,25.044,34.7503,18.336,79.7309,23.1392,98.58,4.53186,5.27879,54.9169712,-2.1744,4.0644
8:55:50,25.046,34.75,18.164,79.7309,23.1384,98.58,4.54063,5.278946,53.66824041,-1.8252,3.978
8:55:51,25.0494,34.7486,17.716,79.7065,23.1363,98.58,4.53765,5.279094,53.62184597,-1.9548,4.8132
8:55:52,25.0491,34.7487,17.239,79.6089,23.1364,98.58,4.53633,5.279057,52.59862082,-2.1744,4.6368
8:55:53,25.0491,34.7487,16.992,79.3404,23.1364,98.58,4.52644,5.27905,52.36905564,-2.79,4.2408
8:55:54,25.0492,34.7487,17.096,79.7309,23.1364,98.58,4.54093,5.279057,52.68927178,-3.7584,4.6368
8:55:55,25.0449,34.7502,17.549,79.7309,23.1388,98.58,4.55912,5.278834,53.38679101,-4.4172,4.8132
8:55:56,25.0447,34.7502,18.152,79.7309,23.1388,98.58,4.56238,5.278835,53.81161275,-4.5072,5.076
8:55:57,25.045,34.7499,18.479,79.7309,23.1386,98.58,4.54018,5.27885,52.18551149,-2.2212,5.1192
8:55:58,25.0466,34.7496,18.3,79.7065,23.1379,98.58,4.51615,5.278968,52.36905564,-1.5156,5.7348
8:55:59,25.0507,34.7484,17.711,79.7309,23.1357,98.58,4.51375,5.279199,52.36905564,-1.8252,5.2956
8:56:00,25.0546,34.7473,17.092,79.7309,23.1337,98.58,4.53769,5.279421,52.68927178,-2.4408,4.68
8:56:01,25.0538,34.7475,16.98,79.6577,23.1341,98.58,4.55427,5.279369,54.00224259,-3.9348,4.68
8:56:02,25.0494,34.7489,17.344,79.6333,23.1364,98.58,4.55296,5.279117,55.65343124,-5.1192,4.8132
8:56:03,25.0529,34.748,17.843,79.6821,23.1347,98.58,4.55595,5.279377,56.15219168,-5.076,4.8996
8:56:04,25.0515,34.748,18.103,79.7309,23.1352,98.58,4.55149,5.279251,55.40642098,-1.8684,5.1192
8:56:05,25.052,34.7482,18.079,79.6821,23.1352,98.58,4.53485,5.279318,54.96484894,-1.296,5.4288
8:56:06,25.052,34.748,17.871,79.7065,23.135,98.58,4.52497,5.279295,56.81210713,-2.0448,5.562
8:56:07,25.055,34.7473,17.49,79.7309,23.1335,98.58,4.53611,5.279488,55.65343124,-1.9548,4.4172
8:56:08,25.059,34.746,17.207,79.7309,23.1314,98.58,4.53172,5.279726,57.58632354,-3.0096,4.9464
8:56:09,25.0638,34.7448,16.99,79.7309,23.129,98.58,4.52916,5.280046,57.01782845,-2.1744,4.9896
8:56:10,25.0685,34.7436,16.826,79.7309,23.1266,98.58,4.53455,5.280358,57.4284694,-2.0016,5.3424
8:56:11,25.0713,34.7431,16.699,79.6577,23.1254,98.58,4.54152,5.280588,57.11900614,-2.0016,4.8132
8:56:12,25.0739,34.7421,16.713,79.7065,23.1239,98.58,4.5403,5.280715,57.84807639,-2.3076,5.2956
8:56:13,25.0735,34.7422,16.437,79.7065,23.1241,98.58,4.5272,5.280678,55.9510981,-1.2096,4.5936
8:56:14,25.08,34.7408,16.362,79.7065,23.1211,98.58,4.51233,5.281161,56.86238321,-2.0448,5.166
8:56:15,25.084,34.7398,16.272,79.7065,23.119,98.58,4.52969,5.281428,56.20159962,-2.1312,5.1192
8:56:16,25.0844,34.7398,16.286,79.7309,23.1189,98.58,4.54478,5.281473,56.65751193,-2.3508,5.3424
8:56:17,25.0848,34.7397,16.285,79.7309,23.1187,98.58,4.54047,5.281495,56.25519682,-1.9548,5.076
8:56:18,25.0846,34.7398,16.225,79.7065,23.1189,98.58,4.53722,5.281495,56.00024872,-1.8252,4.5504
8:56:19,25.086,34.7393,16.083,79.7309,23.1181,98.58,4.52624,5.28157,54.96484894,-1.0332,4.68
8:56:20,25.0848,34.7403,15.964,79.7309,23.1192,98.58,4.53344,5.28157,54.24078447,-1.1664,4.374
8:56:21,25.0864,34.7395,16.03,79.7065,23.1181,98.58,4.55465,5.281629,54.7697053,-1.782,5.0328
8:56:22,25.0912,34.7382,16.298,79.6577,23.1157,98.58,4.54875,5.281971,55.60471623,-2.9232,5.2092
8:56:23,25.0901,34.7385,16.55,79.6821,23.1162,98.58,4.53277,5.281905,56.7075813,-2.9664,5.7816
8:56:24,25.0902,34.7385,16.565,79.6821,23.1162,98.58,4.52663,5.281912,55.30965907,-1.5588,4.9896
8:56:25,25.0906,34.7384,16.311,79.7065,23.116,98.58,4.5333,5.281927,54.67446744,-1.0332,4.9896
8:56:26,25.0936,34.7379,15.99,79.6821,23.1147,98.58,4.53508,5.282157,53.90487377,-0.9,4.68
8:56:27,25.0931,34.7378,15.826,79.7065,23.1148,98.56,4.53395,5.282083,53.85821728,-1.9548,4.0644
8:56:28,25.0912,34.7383,15.929,79.7309,23.1158,98.58,4.54133,5.281971,54.7697053,-2.7036,5.076
8:56:29,25.094,34.7377,16.242,79.7309,23.1145,98.58,4.54494,5.282187,55.60471623,-3.0096,5.472
8:56:30,25.096,34.7371,16.532,79.7065,23.1134,98.58,4.5212,5.282321,56.60750897,-2.7036,5.2956
8:56:31,25.0968,34.7367,16.539,79.7065,23.1128,98.58,4.50205,5.282366,56.45374806,-1.6488,5.1192
8:56:32,25.0992,34.7363,16.233,79.7065,23.1118,98.58,4.5262,5.282536,55.9020098,-0.99,4.8132
8:56:33,25.1005,34.736,15.949,79.7309,23.1112,98.58,4.55657,5.282618,55.60471623,-1.5588,4.0644
8:56:34,25.0987,34.7366,15.926,79.7309,23.1122,98.58,4.56211,5.282514,56.86238321,-2.6136,4.9464
8:56:35,25.1018,34.7358,16.075,79.7065,23.1106,98.58,4.5509,5.282737,57.2755323,-2.8368,5.6052
8:56:36,25.1035,34.7355,16.134,79.7309,23.1099,98.58,4.55121,5.282871,57.84807639,-2.3508,5.472
8:56:37,25.1044,34.7354,16.111,79.7309,23.1095,98.58,4.55221,5.282953,57.95158381,-2.3076,5.166
8:56:38,25.1042,34.7354,16.044,79.7065,23.1096,98.58,4.5367,5.282923,59.2447995,-2.4408,5.2956
8:56:39,25.1037,34.7354,15.977,79.7309,23.1098,98.58,4.53669,5.282878,58.80837813,-2.088,5.076
8:56:40,25.104,34.7356,15.984,79.7065,23.1098,98.58,4.54096,5.282938,58.37737983,-2.088,4.5504
8:56:41,25.1064,34.7351,16.029,79.7065,23.1087,98.58,4.53363,5.283109,58.42987133,-2.088,4.8132
8:56:42,25.1093,34.7346,16.073,79.7309,23.1074,98.58,4.54789,5.283347,59.40652585,-2.4408,5.7816
8:56:43,25.1101,34.7345,16.073,79.7065,23.1071,98.58,4.54277,5.283421,59.18658659,-2.1744,5.5152
8:56:44,25.1125,34.7341,16.036,79.7309,23.1061,98.58,4.50947,5.283615,59.62790244,-1.9548,5.3424
8:56:45,25.1137,34.734,15.998,79.7065,23.1056,98.58,4.51873,5.283719,60.01542719,-2.0448,5.166
8:56:46,25.1145,34.7336,16.013,79.7065,23.1051,98.58,4.53808,5.283756,59.62790244,-1.9116,4.5072
8:56:47,25.1151,34.7337,16.028,79.7065,23.105,98.58,4.5359,5.28383,58.42987133,-1.6488,4.9896
8:56:48,25.1148,34.7338,16.05,79.7065,23.1051,98.58,4.54353,5.283801,57.48385391,-1.5156,4.68
8:56:49,25.1144,34.7338,16.05,79.7065,23.1053,98.58,4.55076,5.283778,57.53505272,-2.1312,4.68
8:56:50,25.1141,34.7339,16.042,79.7309,23.1055,98.58,4.55477,5.283756,56.76189842,-2.1744,5.076
8:56:51,25.1144,34.7339,16.027,79.7065,23.1053,98.58,4.5454,5.283771,57.01782845,-2.484,5.2956
8:56:52,25.1156,34.7336,16.026,79.7065,23.1047,98.58,4.52876,5.28386,57.74486561,-2.79,5.2956
8:56:53,25.116,34.7334,16.033,79.6333,23.1045,98.58,4.52367,5.28389,56.91272695,-2.1312,5.2092
8:56:54,25.1177,34.7332,16.047,79.6821,23.1038,98.58,4.54948,5.284039,56.10284719,-1.6488,4.77
8:56:55,25.1182,34.7331,16.069,79.7065,23.1036,98.58,4.55521,5.284068,55.35801046,-1.4292,4.4172
8:56:56,25.1188,34.7331,16.069,79.7309,23.1034,98.58,4.53793,5.284135,53.71855878,-0.8136,4.0212
8:56:57,25.1173,34.7335,16.046,79.7309,23.1042,98.56,4.52613,5.284024,53.24867731,-1.1196,4.374
8:56:58,25.1173,34.7335,16.023,79.7065,23.1042,98.58,4.54375,5.284024,53.15302678,-1.9548,4.68
8:56:59,25.1199,34.7329,16.007,79.7065,23.103,98.56,4.5576,5.284217,52.96616693,-1.9116,4.8132
8:57:00,25.1205,34.7334,15.985,79.7065,23.1031,98.58,4.55325,5.284344,52.92052841,-2.0448,5.076
8:57:01,25.1214,34.7335,15.947,79.6821,23.1029,98.58,4.53194,5.284448,53.15302678,-2.1744,5.2956
8:57:02,25.1218,34.7334,15.924,79.6821,23.1027,98.58,4.5319,5.28447,51.9580708,-1.9116,4.68
8:57:03,25.12,34.7334,15.938,79.6821,23.1032,98.58,4.53378,5.284284,51.37057795,-1.7352,4.8132
8:57:04,25.1183,34.7337,15.99,79.6821,23.104,98.58,4.53391,5.284158,51.41465302,-1.8684,5.076
8:57:05,25.1159,34.734,16.049,79.7065,23.105,98.58,4.54238,5.283949,50.92486207,-2.0448,5.3856
8:57:06,25.1163,34.7336,16.071,79.7065,23.1046,98.58,4.54238,5.283942,50.70359958,-1.9548,5.4288
8:57:07,25.1155,34.7338,16.033,79.7065,23.1049,98.56,4.55108,5.283875,50.83405389,-2.0448,5.2092
8:57:08,25.1153,34.7338,15.958,79.6821,23.105,98.58,4.55465,5.283853,51.012205,-2.0448,5.0328
8:57:09,25.1153,34.7337,15.898,79.6821,23.1049,98.58,4.52978,5.283845,50.48337628,-1.9116,4.8564
8:57:10,25.1146,34.7339,15.883,79.7065,23.1052,98.56,4.52154,5.283793,50.04597688,-2.0448,4.77
8:57:11,25.1122,34.7344,15.919,79.6821,23.1064,98.58,4.53895,5.283615,50.17462874,-2.1744,5.2524
8:57:12,25.1116,34.7344,15.978,79.6577,23.1066,98.58,4.53756,5.283555,51.32654527,-2.7036,5.6484
8:57:13,25.1111,34.7345,16.008,79.7065,23.1068,98.58,4.51998,5.283511,51.27889086,-2.394,5.6484
8:57:14,25.1112,34.7345,15.985,79.6821,23.1068,98.58,4.53544,5.283533,51.27889086,-2.0016,5.166
8:57:15,25.1122,34.7344,15.948,79.7065,23.1064,98.58,4.54686,5.283615,52.54959646,-2.484,5.4288
8:57:16,25.1131,34.7341,15.925,79.6821,23.1059,98.58,4.5389,5.283659,53.01185369,-2.79,5.3856
8:57:17,25.1139,34.7339,15.932,79.6821,23.1055,98.58,4.5295,5.283719,53.10719015,-2.4408,5.2956
8:57:18,25.1149,34.7337,15.931,79.7065,23.1051,98.58,4.53412,5.283801,52.96616693,-1.9116,5.076
8:57:19,25.116,34.7336,15.908,79.6577,23.1046,98.56,4.54338,5.283905,53.85821728,-1.9116,5.2092
8:57:20,25.1162,34.7336,15.9,79.6821,23.1045,98.56,4.53869,5.283912,54.43340339,-2.1744,4.77
8:57:21,25.1163,34.7335,15.908,79.6821,23.1045,98.58,4.54736,5.283927,54.86915036,-1.9116,4.5504
8:57:22,25.1168,34.7335,15.922,79.1696,23.1043,98.58,4.56282,5.283979,54.6269322,-1.782,4.5504
8:57:23,25.1172,34.7333,15.9,79.6333,23.1041,98.56,4.54876,5.283987,55.45489087,-1.9116,5.166
8:57:24,25.1173,34.7334,15.862,79.6333,23.1041,98.58,4.55165,5.284009,53.85821728,-1.9116,4.0644
8:57:25,25.1173,34.7334,15.847,79.6821,23.1041,98.58,4.55126,5.284001,53.24867731,-1.9116,4.68
8:57:26,25.1171,34.7336,15.884,79.6333,23.1043,98.58,4.53112,5.284009,51.05593819,-1.9116,4.5504
8:57:27,25.1177,34.7334,15.906,79.6821,23.104,98.58,4.52497,5.284046,47.57830809,-1.6056,4.4172
8:57:28,25.1173,34.7335,15.913,79.6821,23.1041,98.58,4.52674,5.284024,44.47516193,-1.1664,4.4604
8:57:29,25.1177,34.7332,15.913,79.6821,23.1038,98.58,4.53968,5.284031,42.77491495,-1.692,4.8132
8:57:30,25.117,34.7335,15.898,79.6821,23.1043,98.58,4.5516,5.283987,40.38195301,-1.9116,5.1192
8:57:31,25.1173,34.7333,15.875,79.6577,23.104,98.58,4.55556,5.284001,38.53261303,-1.9116,5.2956
8:57:32,25.1173,34.7334,15.86,79.6821,23.1041,98.58,4.55593,5.284009,36.5896612,-1.9116,5.2956
8:57:33,25.1179,34.7333,15.852,79.6577,23.1038,98.58,4.55736,5.284053,36.03504655,-2.0016,5.5152
8:57:34,25.1169,34.7334,15.844,79.6577,23.1042,98.56,4.55274,5.283964,34.93452692,-2.088,5.472
8:57:35,25.1168,34.7334,15.837,79.6821,23.1043,98.58,4.54086,5.283957,34.73070281,-1.9548,5.9112
8:57:36,25.1161,34.7336,15.837,79.6821,23.1046,98.58,4.55279,5.283905,34.49400476,-1.782,6.1308
8:57:37,25.1123,34.7342,15.903,79.6333,23.1062,98.56,4.55268,5.2836,35.03802852,-1.9116,6.2208
8:57:38,25.1105,34.7347,15.955,79.6333,23.1071,98.56,4.53158,5.283481,35.7577898,-2.0448,6.3072
8:57:39,25.1087,34.7352,15.925,79.6821,23.108,98.56,4.52553,5.283362,36.86989765,-1.9116,6.4404
8:57:40,25.1117,34.7345,15.85,79.6821,23.1066,98.58,4.54148,5.283577,38.03334663,-2.1744,6.264
8:57:41,25.111,34.7344,15.812,79.6821,23.1068,98.58,4.53644,5.283488,38.7820776,-2.5272,5.7816
8:57:42,25.1073,34.7352,15.878,79.6577,23.1085,98.56,4.53349,5.283213,40.38195301,-2.88,6.1308
8:57:43,25.1107,34.7345,15.997,79.6577,23.107,98.58,4.53549,5.283481,42.12883925,-2.9664,6.4836
8:57:44,25.1079,34.7352,16.116,79.6333,23.1083,98.56,4.55375,5.28328,42.89054697,-2.9664,6.3972
8:57:45,25.1092,34.7349,16.182,79.6821,23.1077,98.58,4.5501,5.283392,44.79077861,-2.9664,6.3072
8:57:46,25.1129,34.7341,16.16,79.6577,23.106,98.56,4.53369,5.283659,45.50568572,-2.8368,5.9544
8:57:47,25.1151,34.7337,16.137,79.6577,23.105,98.56,4.53461,5.283838,46.47217546,-2.9664,5.7348
8:57:48,25.116,34.7336,16.151,79.6821,23.1046,98.56,4.53417,5.283912,46.22979008,-2.9664,5.4288
8:57:49,25.1163,34.7336,16.203,79.6577,23.1045,98.56,4.5522,5.283942,45.70551859,-3.0564,5.2956
8:57:50,25.1169,34.7334,16.255,79.6821,23.1043,98.58,4.56047,5.283987,45.42399178,-2.9664,5.5152
8:57:51,25.1173,34.7334,16.306,79.6577,23.1041,98.56,4.5407,5.284024,45.06593182,-2.9664,5.6916
8:57:52,25.117,34.7335,16.336,79.6333,23.1042,98.58,4.53138,5.284009,45.22515264,-2.9232,5.562
8:57:53,25.1164,34.7335,16.402,79.6577,23.1044,98.58,4.53575,5.28395,44.20278906,-2.88,5.562
8:57:54,25.1168,34.7333,16.491,79.6577,23.1042,98.58,4.53792,5.283972,42.70002574,-2.3076,5.076
8:57:55,25.1163,34.7337,16.58,79.6577,23.1046,98.56,4.52357,5.283972,41.26937365,-1.9548,5.3424
8:57:56,25.1162,34.7337,16.646,79.6333,23.1046,98.56,4.53443,5.283965,40.15967761,-1.9116,5.0328
8:57:57,25.1162,34.7336,16.697,79.6577,23.1046,98.56,4.51712,5.283957,39.25108552,-2.0448,4.9464
8:57:58,25.1162,34.7333,16.741,79.6333,23.1044,98.56,4.49952,5.28392,38.64109674,-1.9116,5.6916
8:57:59,25.1153,34.7338,16.793,79.6577,23.105,98.56,4.51684,5.28389,38.03334663,-2.0448,5.5152
8:58:00,25.1125,34.7344,16.852,79.6577,23.1063,98.56,4.51773,5.28369,36.80117361,-1.9116,5.166
8:58:01,25.1082,34.7352,16.911,79.6577,23.1083,98.56,4.52563,5.283355,36.62677671,-1.9116,5.2956
8:58:02,25.1046,34.7362,16.97,79.6577,23.1101,98.56,4.5594,5.28311,35.03802852,-1.8252,5.166
8:58:03,25.102,34.7364,17.021,79.6577,23.111,98.56,4.54917,5.282879,34.62758657,-1.8684,5.1192
8:58:04,25.1004,34.7372,17.109,79.6577,23.1121,98.56,4.53966,5.28282,33.88446213,-1.7352,5.472
8:58:05,25.0991,34.7374,17.273,79.6577,23.1126,98.56,4.54197,5.282723,33.47959673,-2.6604,5.868
8:58:06,25.0992,34.7375,17.421,79.6577,23.1127,98.56,4.53844,5.282745,33.41367633,-2.394,5.9544
8:58:07,25.0989,34.7375,17.45,79.6577,23.1128,98.56,4.53126,5.282723,33.85134018,-2.4408,6.0444
8:58:08,25.1,34.7373,17.397,79.6577,23.1123,98.56,4.53223,5.282812,33.27924387,-1.8252,6.0012
8:58:09,25.1007,34.7371,17.367,79.6577,23.1119,98.56,4.53433,5.282849,32.97820705,-2.2212,5.7816
8:58:10,25.0969,34.7377,17.44,79.6577,23.1136,98.56,4.5346,5.282545,33.51257574,-2.8368,6.0876
8:58:11,25.0929,34.7386,17.648,79.6333,23.1155,98.56,4.54218,5.282255,33.21347492,-2.7036,6.1308
8:58:12,25.0917,34.7388,17.886,79.6577,23.116,98.56,4.53518,5.282166,33.58132243,-2.7036,6.5268
8:58:13,25.091,34.739,18.02,79.6333,23.1164,98.56,4.51511,5.282128,33.6143403,-2.4408,6.0444
8:58:14,25.092,34.7388,18.019,79.6577,23.1159,98.58,4.53884,5.282195,33.95074466,-2.3076,5.9112
8:58:15,25.0931,34.7386,17.937,79.5601,23.1154,98.56,4.54409,5.282285,34.22193677,-2.394,6.0012
8:58:16,25.0936,34.7384,17.899,79.6333,23.115,98.56,4.55203,5.282307,34.35786036,-2.7468,5.7348
8:58:17,25.0888,34.7395,18.003,79.6333,23.1174,98.56,4.57043,5.281957,33.98390529,-2.9664,5.7816
8:58:18,25.0879,34.7396,18.218,79.6577,23.1177,98.56,4.55909,5.281891,33.24635321,-2.8368,5.9112
8:58:19,25.0898,34.7394,18.456,79.6577,23.117,98.56,4.52847,5.282069,34.11944578,-2.9232,6.3072
8:58:20,25.0899,34.7393,18.619,79.6333,23.1169,98.56,4.5271,5.282084,33.6143403,-2.5272,5.6484
8:58:21,25.0921,34.7388,18.663,79.6089,23.1158,98.56,4.53811,5.28224,33.74929486,-1.9116,5.2524
8:58:22,25.0938,34.7384,18.633,79.6577,23.115,98.58,4.53906,5.282367,33.47959673,-1.9116,5.3856
8:58:23,25.0945,34.7382,18.633,79.6577,23.1146,98.56,4.52713,5.282404,32.41175439,-1.9116,5.4288
8:58:24,25.0927,34.7386,18.744,79.6821,23.1155,98.56,4.52369,5.282278,32.34662416,-2.5704,5.2956
8:58:25,25.0879,34.7397,18.953,79.6577,23.1178,98.56,4.53454,5.281943,32.24630677,-3.0564,5.7816
8:58:26,25.0859,34.7404,19.191,79.6333,23.1189,98.56,4.52865,5.281832,32.31407662,-2.9664,6.0012
8:58:27,25.084,34.7407,19.363,79.6577,23.1198,98.56,4.53753,5.281698,32.2137952,-2.7036,6.1776
8:58:28,25.0842,34.7406,19.474,79.6577,23.1196,98.56,4.55056,5.281705,32.37918341,-2.2212,5.472
8:58:29,25.0849,34.7403,19.6,79.6333,23.1192,98.56,4.52211,5.281743,30.93330882,-2.0448,5.0328
8:58:30,25.0881,34.7396,19.749,79.6333,23.1176,98.56,4.52959,5.281981,30.34728539,-1.9548,5.2956
8:58:31,25.092,34.7389,19.898,79.6821,23.116,98.56,4.54417,5.2823,30.73846121,-2.5704,5.3424
8:58:32,25.093,34.7386,20.055,79.6821,23.1154,98.56,4.53736,5.282375,30.34728539,-2.4408,5.9112
8:58:33,25.0942,34.7385,20.233,79.6577,23.115,98.56,4.53885,5.282487,30.47750247,-2.9664,6.1308
8:58:34,25.0867,34.74,20.464,79.6577,23.1184,98.56,4.54773,5.281929,30.93330882,-2.9664,6.57
8:58:35,25.0775,34.7423,20.694,79.6333,23.1229,98.56,4.54735,5.281282,30.47750247,-2.7036,6.0444
8:58:36,25.079,34.742,20.91,79.6577,23.1222,98.56,4.53801,5.281401,31.45575618,-2.8368,6.5268
8:58:37,25.0787,34.7419,21.081,79.6577,23.1222,98.56,4.54534,5.281371,31.06431983,-2.7036,5.9544
8:58:38,25.0766,34.7424,21.214,79.6577,23.1233,98.56,4.54048,5.28123,30.93330882,-2.5704,5.7348
8:58:39,25.0735,34.743,21.363,79.6577,23.1247,98.56,4.51693,5.281,31.49068918,-2.8368,5.4288
8:58:40,25.0711,34.7437,21.526,79.6577,23.126,98.56,4.5446,5.280844,31.98383627,-3.0564,5.562
8:58:41,25.0609,34.7469,21.719,79.6577,23.1315,98.56,4.56262,5.280234,32.71087273,-2.7036,5.4288
8:58:42,25.0594,34.7469,21.89,79.6577,23.1319,98.56,4.54805,5.280078,32.87718003,-2.8368,5.6916
8:58:43,25.0528,34.7488,22.046,79.6089,23.1354,98.56,4.5453,5.279662,33.11217782,-2.484,5.4288
8:58:44,25.0525,34.7488,22.224,79.6577,23.1354,98.56,4.53673,5.279625,32.97820705,-2.2644,5.2092
8:58:45,25.052,34.7487,22.41,79.6577,23.1355,98.56,4.52241,5.27958,33.71622516,-2.7036,5.5152
8:58:46,25.054,34.7481,22.596,79.6577,23.1344,98.56,4.53286,5.279707,33.24635321,-2.5704,5.2956
8:58:47,25.0522,34.7486,22.767,79.6333,23.1354,98.56,4.5446,5.279595,33.11217782,-2.7036,5.0328
8:58:48,25.0465,34.7504,22.945,79.6577,23.1385,98.56,4.55373,5.279261,32.37918341,-2.5704,4.9464
8:58:49,25.0445,34.7512,23.13,79.6577,23.1397,98.56,4.55179,5.279172,31.32688541,-2.0448,5.0328
8:58:50,25.045,34.751,23.338,79.6089,23.1394,98.56,4.54502,5.279209,31.78410514,-2.394,5.2956
8:58:51,25.0438,34.7515,23.517,79.6577,23.1401,98.56,4.54157,5.279157,31.19551155,-2.2212,5.166
8:58:52,25.0434,34.7514,23.665,79.6577,23.1402,98.56,4.53915,5.279105,30.90125187,-2.2644,5.2956
8:58:53,25.0417,34.7522,23.784,79.6577,23.1413,98.56,4.54039,5.279031,30.5094189,-2.3508,5.4288
8:58:54,25.0411,34.7524,23.91,79.6821,23.1416,98.56,4.54158,5.279001,29.86248345,-2.4408,5.6052
8:58:55,25.0392,34.7532,24.073,79.6577,23.1429,98.56,4.54539,5.278927,29.50898228,-2.5704,5.3424
8:58:56,25.0365,34.7542,24.296,79.6089,23.1444,98.56,4.54929,5.278786,30.18542005,-2.9664,5.7816
8:58:57,25.0364,34.7541,24.526,79.6333,23.1444,98.56,4.54473,5.278778,29.47738586,-2.5704,5.6484
8:58:58,25.0356,34.7545,24.742,79.6577,23.1449,98.56,4.53657,5.278764,29.05965562,-2.3076,5.7348
8:58:59,25.034,34.7551,24.92,79.6577,23.1458,98.56,4.53423,5.278682,28.77164883,-2.8368,5.2956
8:59:00,25.0307,34.7562,25.061,79.6577,23.1477,98.56,4.51495,5.278489,28.54703278,-2.4408,5.3856
8:59:01,25.0301,34.7563,25.195,79.6577,23.1479,98.56,4.53061,5.278452,28.61227857,-2.484,5.5152
8:59:02,25.0306,34.7563,25.321,79.6577,23.1477,98.56,4.54799,5.278496,27.97718898,-2.79,5.2956
8:59:03,25.0325,34.7556,25.499,79.6577,23.1467,98.56,4.54004,5.278615,28.03948963,-2.7036,5.2956
8:59:04,25.0336,34.755,25.715,79.6577,23.1459,98.56,4.53324,5.27866,27.81900305,-2.7036,5.2956
8:59:05,25.0331,34.7554,25.924,79.6577,23.1463,98.56,4.54893,5.278668,27.66104724,-2.6604,5.472
8:59:06,25.0336,34.7552,26.095,79.6577,23.146,98.56,4.56456,5.278697,26.65389683,-2.3508,5.562
8:59:07,25.0336,34.755,26.236,79.6577,23.1459,98.56,4.54584,5.278683,26.37216635,-2.7036,5.6484
8:59:08,25.034,34.7549,26.385,79.6821,23.1456,98.56,4.53434,5.278712,25.96614565,-2.7036,5.3856
8:59:09,25.0314,34.7559,26.571,79.6577,23.1473,98.56,4.53168,5.278586,25.06714028,-2.8368,5.2956
8:59:10,25.0326,34.7555,26.764,79.6333,23.1466,98.56,4.52663,5.278676,24.54450891,-2.3508,5.6052
8:59:11,25.0332,34.7552,26.943,79.6089,23.1462,98.56,4.53248,5.278698,23.65571978,-2.79,5.3424
8:59:12,25.0335,34.7551,27.114,79.6821,23.146,98.56,4.52748,5.278728,22.52955822,-2.5704,5.2956
8:59:13,25.0342,34.7549,27.278,79.6089,23.1456,98.56,4.5156,5.278765,22.71080436,-2.9664,5.5152
8:59:14,25.0337,34.7549,27.449,79.6821,23.1458,98.56,4.52512,5.278735,21.74275578,-2.8368,5.3856
8:59:15,25.0295,34.7567,27.62,79.6333,23.1484,98.56,4.53594,5.278542,20.90134933,-2.6136,5.3424
8:59:16,25.0307,34.756,27.791,79.6577,23.1476,98.56,4.54466,5.278587,20.18423753,-2.6604,5.6484
8:59:17,25.0259,34.7587,27.939,79.6577,23.151,98.56,4.55732,5.278453,20.27460986,-2.4408,5.9112
8:59:18,25.0241,34.7596,28.088,79.6821,23.1522,98.56,4.5615,5.278394,19.91587112,-2.8368,5.6484
8:59:19,25.0219,34.7604,28.288,79.6821,23.1535,98.56,4.56104,5.278282,19.97682327,-2.5704,5.7816
8:59:20,25.0179,34.7619,28.511,79.6821,23.1558,98.56,4.54112,5.278074,19.9475633,-2.8368,6.0444
8:59:21,25.0174,34.7621,28.704,79.6821,23.1561,98.56,4.52568,5.278067,19.47041035,-2.7036,5.8248
8:59:22,25.0132,34.7628,28.868,79.6821,23.158,98.56,4.54594,5.277733,18.90742383,-2.4408,5.7816
8:59:23,25.0129,34.763,28.986,79.6821,23.1583,98.56,4.55036,5.277733,19.02617069,-2.9232,5.9112
8:59:24,25.0111,34.7633,29.098,79.6333,23.159,98.56,4.52808,5.277599,19.11589293,-2.9664,6.0012
8:59:25,25.0115,34.7633,29.239,79.6577,23.1588,98.56,4.51727,5.277636,19.0867885,-2.88,6.0444
8:59:26,25.0084,34.7642,29.432,79.6821,23.1605,98.56,4.52659,5.27745,18.46467989,-3.2292,5.7816
8:59:27,25.0066,34.7648,29.692,79.6821,23.1615,98.56,4.52647,5.277346,18.40670039,-2.79,6.1308
8:59:28,25.0062,34.7647,29.945,79.6821,23.1615,98.56,4.52193,5.277309,18.37771796,-2.8368,6.1308
8:59:29,25.0073,34.7646,30.146,79.6821,23.1611,98.56,4.52668,5.277421,18.40670039,-2.9232,6.1776
8:59:30,25.0072,34.7647,30.249,79.6821,23.1613,98.56,4.54957,5.277421,18.46467989,-2.79,6.1776
8:59:31,25.0072,34.7647,30.323,79.6821,23.1612,98.56,4.55577,5.277429,18.46467989,-2.88,5.9544
8:59:32,25.0082,34.7644,30.464,79.6821,23.1607,98.56,4.5348,5.277496,19.0867885,-3.3192,5.868
8:59:33,25.0081,34.7645,30.687,79.6577,23.1608,98.56,4.53638,5.27751,18.82023495,-3.3192,6.0444
8:59:34,25.0074,34.7646,30.925,79.6821,23.1611,98.56,4.54089,5.277459,18.25942348,-3.0996,6.0444
8:59:35,25.0075,34.7646,31.118,79.6577,23.1611,98.56,4.52904,5.277474,18.08092709,-3.186,6.3072
8:59:36,25.0077,34.7646,31.259,79.6821,23.161,98.56,4.53997,5.277503,18.23046571,-3.0096,6.3504
8:59:37,25.0073,34.7646,31.393,79.6821,23.1611,98.56,4.52883,5.277474,18.28838609,-3.1428,6.4836
8:59:38,25.0078,34.7645,31.527,79.6821,23.1609,98.56,4.51837,5.277511,17.81833641,-3.0564,5.9544
8:59:39,25.0087,34.7643,31.698,79.6821,23.1605,98.56,4.54087,5.277578,17.61142773,-3.5388,5.868
8:59:40,25.0079,34.7644,31.914,79.6821,23.1608,98.56,4.54683,5.277526,17.52248197,-3.4488,6.1308
8:59:41,25.0064,34.765,32.152,79.7065,23.1617,98.56,4.54526,5.277459,17.08319644,-3.4056,6.1308
8:59:42,25.0062,34.7651,32.368,79.7065,23.1618,98.56,4.5298,5.277459,16.38199609,-3.186,5.6484
8:59:43,25.0065,34.7651,32.516,79.6821,23.1617,98.56,4.53603,5.277497,17.84722643,-3.0564,6.3972
8:59:44,25.0072,34.7647,32.65,79.6821,23.1613,98.56,4.53678,5.277526,17.2607048,-2.9664,6.1308
8:59:45,25.0074,34.7631,32.806,79.6821,23.1599,98.56,4.5601,5.277333,16.70475447,-2.9664,5.8248
8:59:46,25.0073,34.7645,33.008,79.7065,23.161,98.56,4.5649,5.277519,17.22950858,-3.1428,6.264
8:59:47,25.0066,34.7646,33.208,79.6821,23.1613,98.56,4.53933,5.277475,17.11436805,-3.186,6.2208
8:59:48,25.0067,34.7646,33.379,79.6821,23.1613,98.56,4.54196,5.27749,17.2607048,-3.0564,6.4404
8:59:49,25.0066,34.7648,33.528,79.6821,23.1615,98.56,4.53659,5.277512,17.58257566,-2.9664,6.57
8:59:50,25.0064,34.7649,33.677,79.6577,23.1616,98.56,4.54285,5.277519,18.14120953,-3.3192,6.5268
8:59:51,25.0048,34.7656,33.841,79.6821,23.1627,98.56,4.5608,5.277445,18.49367699,-2.9664,6.6168
8:59:52,25.0044,34.7657,34.019,79.6821,23.1629,98.56,4.56238,5.27743,17.99415673,-2.9664,6.264
8:59:53,25.0019,34.7666,34.198,79.6821,23.1643,98.56,4.54015,5.277297,18.34632583,-3.0564,6.264
8:59:54,25.0009,34.7669,34.391,79.6821,23.1648,98.56,4.54286,5.277245,18.52509605,-3.186,6.0444
8:59:55,25.0005,34.767,34.577,79.6821,23.165,98.56,4.54841,5.277215,18.90742383,-3.0564,6.3072
8:59:56,25.0004,34.7671,34.771,79.6821,23.1651,98.56,4.55469,5.27723,19.41208063,-3.5388,6.5268
8:59:57,25.0001,34.7671,34.941,79.6821,23.1652,98.56,4.5403,5.277215,20.24529416,-3.4488,6.6168
8:59:58,25.0004,34.767,35.112,79.6821,23.1651,98.56,4.51281,5.277238,19.70880889,-3.5388,6.2208
8:59:59,25.0009,34.7669,35.276,79.6821,23.1648,98.56,4.5281,5.277275,20.36503488,-3.582,6.66
9:00:00,25.0006,34.7669,35.432,79.6821,23.1649,98.56,4.55031,5.277253,19.9475633,-3.3192,6.3504
9:00:01,25.0001,34.7669,35.61,79.6821,23.165,98.56,4.52905,5.277208,20.48242204,-3.3192,6.2208
9:00:02,24.9996,34.7673,35.803,79.6821,23.1655,98.56,4.52846,5.277216,20.21598399,-3.4056,5.9544
9:00:03,24.9987,34.7675,35.982,79.6577,23.1659,98.56,4.54856,5.277164,20.3332579,-3.4056,6.3504
9:00:04,24.9966,34.7689,36.175,79.6821,23.1676,98.56,4.54406,5.277142,20.15493885,-3.4056,6.0444
9:00:05,24.9749,34.78,36.368,79.6821,23.1826,98.56,4.54463,5.276399,20.03535951,-3.4056,5.9112
9:00:06,24.9552,34.7879,36.524,79.7065,23.1945,98.56,4.53604,5.275418,19.65039289,-3.5388,5.9112
9:00:07,24.9508,34.7883,36.665,79.6821,23.1962,98.56,4.52805,5.275016,19.67959823,-3.2292,6.0444
9:00:08,24.9124,34.8022,36.813,79.7065,23.2183,98.56,4.52999,5.272906,20.3332579,-3.4956,6.3972
9:00:09,24.8954,34.8077,37.014,79.7065,23.2277,98.56,4.54057,5.271903,19.17411717,-3.186,5.8248
9:00:10,24.8714,34.8159,37.222,79.7065,23.2411,98.56,4.55412,5.270521,19.14500248,-3.3192,5.7816
9:00:11,24.8424,34.8215,37.408,79.6333,23.2541,98.56,4.54294,5.268263,19.70880889,-3.276,5.9112
9:00:12,24.8017,34.8296,37.586,79.6821,23.2725,98.56,4.51675,5.265129,19.17411717,-3.3192,5.9112
9:00:13,24.7802,34.8337,37.779,79.6821,23.2822,98.56,4.51784,5.263465,18.96799839,-3.3192,5.7816
9:00:14,24.7346,34.8418,37.965,79.7065,23.302,98.56,4.54316,5.259805,18.997082,-3.186,5.9544
9:00:15,24.6327,34.8495,38.113,79.6821,23.3386,98.56,4.53277,5.250262,18.70163378,-3.3192,5.6052
9:00:16,24.604,34.8511,38.262,79.6821,23.3484,98.56,4.51196,5.24751,18.4356877,-3.4056,5.8248
9:00:17,24.5119,34.852,38.426,79.6577,23.3768,98.56,4.5275,5.238073,18.82023495,-3.4488,5.7348
9:00:18,24.4937,34.8505,38.619,79.6577,23.3811,98.56,4.52344,5.235998,18.79118205,-3.6252,6.1308
9:00:19,24.4641,34.8509,38.812,79.6577,23.3903,98.56,4.53917,5.232975,18.11227137,-3.3192,5.9544
9:00:20,24.4373,34.8479,38.998,79.6577,23.396,98.56,4.563,5.229813,18.11227137,-3.6252,6.0012
9:00:21,24.2634,34.8574,39.184,79.6821,23.4552,98.56,4.57408,5.213043,17.5537282,-3.3192,5.9112
9:00:22,24.2057,34.8674,39.377,79.6577,23.4799,98.56,4.57223,5.208399,16.85077194,-3.5388,5.5152
9:00:23,24.2037,34.8683,39.571,79.6821,23.4812,98.56,4.57503,5.208318,15.94532869,-3.5388,5.3856
9:00:24,24.1751,34.8719,39.735,79.6577,23.4924,98.56,4.56958,5.205834,15.79998529,-3.2292,5.6916
9:00:25,24.1777,34.8711,39.891,79.6333,23.4911,98.56,4.54977,5.206019,15.85953958,-3.582,6.1776
9:00:26,24.1687,34.8745,40.025,79.6333,23.4963,98.56,4.53779,5.205539,14.84233147,-3.5388,6.0876
9:00:27,24.1615,34.8751,40.159,79.6577,23.4989,98.56,4.5329,5.204881,14.98700731,-3.6252,6.0012
9:00:28,24.1498,34.8779,40.352,79.6577,23.5045,98.56,4.54204,5.204039,14.1203813,-3.3192,6.1308
9:00:29,24.1368,34.8824,40.591,79.6089,23.5118,98.56,4.54266,5.203307,14.20783784,-3.582,6.2208
9:00:30,24.1318,34.8826,40.836,79.6577,23.5134,98.56,4.5271,5.202827,13.14169357,-3.6252,5.868
9:00:31,24.1292,34.8828,41.022,79.6577,23.5143,98.56,4.52481,5.202576,13.34182024,-3.276,6.4836
9:00:32,24.109,34.8871,41.149,79.6333,23.5236,98.56,4.53073,5.201069,12.96995034,-3.3192,6.3504
9:00:33,24.1072,34.8857,41.261,79.6333,23.5231,98.56,4.53583,5.200707,13.02640071,-3.8016,6.4404
9:00:34,24.102,34.8867,41.425,79.6333,23.5254,98.56,4.53253,5.200301,12.39440776,-3.672,6.0876
9:00:35,24.0862,34.8897,41.64,79.6577,23.5323,98.56,4.5325,5.199074,12.2513091,-3.672,6.0012
9:00:36,24.0573,34.8944,41.856,79.6333,23.5445,98.56,4.53564,5.196711,12.56810844,-3.2292,6.1776
9:00:37,24.0576,34.895,42.034,79.5845,23.5448,98.56,4.5357,5.196822,11.93723215,-3.186,5.9544
9:00:38,24.0474,34.8975,42.183,79.6577,23.5498,98.56,4.53269,5.196105,12.2513091,-3.7584,6.1308
9:00:39,24.0475,34.8974,42.302,79.6089,23.5496,98.56,4.53275,5.196098,11.50889135,-3.6252,5.6916
9:00:40,24.0435,34.8985,42.466,79.6333,23.5516,98.56,4.53424,5.19584,12.0239181,-3.1428,6.264
9:00:41,24.0347,34.9001,42.681,79.6333,23.5554,98.56,4.52746,5.195153,11.88101826,-3.4488,6.0012
9:00:42,24.0292,34.9001,42.919,79.6333,23.557,98.56,4.52796,5.194592,11.56502952,-3.4488,6.1776
9:00:43,24.0261,34.9003,43.09,79.6333,23.5582,98.56,4.53805,5.194304,11.53695903,-3.4056,6.3972
9:00:44,24.0232,34.9007,43.202,79.6333,23.5593,98.56,4.53457,5.19406,11.62351876,-3.2292,6.0012
9:00:45,24.0157,34.9021,43.313,79.6577,23.5626,98.56,4.52532,5.193477,12.2513091,-3.5388,6.264
9:00:46,23.9984,34.9048,43.506,79.6333,23.5698,98.56,4.52023,5.192045,11.85057391,-3.5388,6.1308
9:00:47,23.9878,34.906,43.751,79.6821,23.5738,98.56,4.51963,5.191115,12.13641722,-3.186,6.1308
9:00:48,23.9555,34.9126,43.96,79.6577,23.5884,98.56,4.52037,5.188649,12.2513091,-3.0564,6.1308
9:00:49,23.969,34.9083,44.123,79.6333,23.5811,98.56,4.50957,5.189491,12.59628714,-2.9664,6.3504
9:00:50,23.955,34.9111,44.249,79.6089,23.5873,98.56,4.5042,5.188406,12.93937841,-2.9664,6.2208
9:00:51,23.9251,34.9163,44.39,79.5845,23.6001,98.56,4.52091,5.186007,12.62446894,-2.9664,6.1308
9:00:52,23.9081,34.9184,44.576,79.5601,23.6068,98.56,4.51696,5.184532,12.50941273,-2.9664,5.7816
9:00:53,23.8864,34.9208,44.784,79.5845,23.615,98.56,4.51126,5.182606,13.60105441,-2.9232,6.0444
9:00:54,23.8954,34.9194,44.962,79.5845,23.6113,98.56,4.4906,5.183366,13.86057267,-2.6136,6.3504
9:00:55,23.8661,34.9231,45.133,79.5601,23.6227,98.56,4.49001,5.180821,13.48554265,-2.8368,5.9544
9:00:56,23.8476,34.9248,45.297,79.5357,23.6294,98.56,4.4908,5.179132,12.9111615,-2.5272,5.6052
9:00:57,23.8236,34.928,45.49,79.5601,23.6389,98.56,4.48988,5.177067,13.51382607,-3.0564,5.7348
9:00:58,23.8022,34.9309,45.698,79.5357,23.6474,98.56,4.50501,5.175246,13.86057267,-3.0564,5.6484
9:00:59,23.7878,34.9316,45.876,79.5357,23.6523,98.56,4.49973,5.17386,13.77324807,-2.7036,5.4288
9:01:00,23.7806,34.9327,46.025,79.4868,23.6552,98.56,4.47794,5.173256,14.5248571,-2.9664,5.6916
9:01:01,23.7699,34.9331,46.159,79.438,23.6586,98.56,4.47354,5.172216,14.17710603,-2.8368,5.6052
9:01:02,23.7517,34.9338,46.359,79.438,23.6645,98.56,4.47321,5.170425,14.38048664,-2.7036,5.5152
9:01:03,23.7403,34.935,46.575,79.4624,23.6687,98.56,4.47266,5.169416,14.69775238,-2.8368,5.562
9:01:04,23.7269,34.935,46.761,79.5112,23.6727,98.56,4.47603,5.16803,14.87078461,-2.9232,5.3856
9:01:05,23.7215,34.935,46.917,79.5112,23.6743,98.56,4.47766,5.167485,14.49644894,-2.4408,5.3856
9:01:06,23.7179,34.9341,47.066,79.5112,23.6747,98.56,4.47424,5.166992,14.26458448,-2.5704,5.0328
9:01:07,23.7151,34.9344,47.23,79.4624,23.6757,98.56,4.48206,5.166749,15.07480911,-2.8368,5.4288
9:01:08,23.7119,34.9347,47.416,79.4868,23.6769,98.56,4.48732,5.166469,14.90161308,-2.7036,5.6052
9:01:09,23.7131,34.9341,47.58,79.4868,23.6761,98.56,4.48498,5.166535,14.5248571,-2.5704,5.4288
9:01:10,23.7119,34.9343,47.758,79.5112,23.6766,98.56,4.49531,5.166432,14.40887998,-2.5704,5.4288
9:01:11,23.7121,34.9343,47.967,79.5357,23.6765,98.56,4.49163,5.166462,14.09202424,-2.7036,5.3856
9:01:12,23.7114,34.934,48.205,79.4624,23.6765,98.56,4.47697,5.166359,14.23620938,-2.79,5.6916
9:01:13,23.7094,34.9342,48.391,79.5112,23.6773,98.56,4.4746,5.166189,14.40887998,-2.5704,5.6916
9:01:14,23.7082,34.9341,48.51,79.5601,23.6775,98.56,4.48584,5.166057,14.43727695,-2.6604,5.6916
9:01:15,23.7072,34.9343,48.6,79.5112,23.678,98.56,4.46826,5.16599,13.51382607,-2.4408,5.2956
9:01:16,23.7034,34.9351,48.763,79.5601,23.6797,98.56,4.47378,5.165703,13.51382607,-2.5704,5.4288
9:01:17,23.7029,34.9351,48.994,79.5601,23.6799,98.56,4.50249,5.165666,13.57276063,-2.8368,5.3856
9:01:18,23.7012,34.9354,49.233,79.5601,23.6806,98.56,4.50414,5.165534,12.73957692,-2.3076,5.5152
9:01:19,23.6893,34.9357,49.411,79.5601,23.6843,98.56,4.49042,5.164341,12.96995034,-2.394,5.7348
9:01:20,23.6824,34.9356,49.538,79.5845,23.6862,98.56,4.48601,5.163626,12.19502931,-2.3076,5.2092
9:01:21,23.6666,34.9347,49.687,79.4136,23.6902,98.56,4.48956,5.16188,12.36625103,-2.1744,5.2956
9:01:22,23.66,34.9352,49.858,79.5845,23.6926,98.56,4.49506,5.161269,12.10828801,-2.4408,5.2956
9:01:23,23.6575,34.9346,50.052,79.5845,23.6928,98.56,4.49535,5.160945,11.13725592,-2.4408,5.0328
9:01:24,23.6534,34.9343,50.238,79.6089,23.6938,98.56,4.48322,5.160481,11.50889135,-2.1312,5.472
9:01:25,23.6487,34.9339,50.416,79.5845,23.6949,98.56,4.47987,5.159951,11.96534346,-2.4408,6.0444
9:01:26,23.6473,34.9333,50.58,79.6333,23.6948,98.56,4.48362,5.15973,9.969272255,-2.088,5.2092
9:01:27,23.6398,34.9328,50.758,79.5601,23.6966,98.56,4.493,5.158898,10.19739542,-2.1744,5.2524
9:01:28,23.6377,34.9326,50.966,79.6089,23.6971,98.56,4.50083,5.158663,10.22534002,-2.4408,5.3856
9:01:29,23.6388,34.9327,51.159,79.6333,23.6969,98.56,4.50227,5.158803,10.08331365,-2.6604,5.5152
9:01:30,23.639,34.9322,51.323,79.6577,23.6964,98.56,4.51134,5.158759,8.411408181,-2.0448,5.2092
9:01:31,23.6369,34.9321,51.442,79.6089,23.6969,98.56,4.52172,5.158538,8.212218311,-2.2644,5.2524
9:01:32,23.6306,34.9316,51.605,79.6333,23.6984,98.56,4.51871,5.157824,9.260300333,-2.2212,5.7348
9:01:33,23.6307,34.9316,51.813,79.6089,23.6984,98.56,4.5039,5.157846,8.070993177,-2.3076,5.166
9:01:34,23.6309,34.9316,52.044,79.6333,23.6983,98.56,4.50401,5.157876,8.552755975,-2.1744,5.6052
9:01:35,23.6311,34.9315,52.229,79.6821,23.6982,98.56,4.51145,5.15789,7.846523314,-2.1744,5.3856
9:01:36,23.6315,34.9314,52.356,79.6821,23.698,98.56,4.50014,5.157935,8.411408181,-2.1744,5.7348
9:01:37,23.6298,34.9309,52.482,79.7065,23.6981,98.56,4.49158,5.157699,7.733177598,-2.1312,5.2956
9:01:38,23.6212,34.9305,52.638,79.7065,23.7004,98.56,4.50341,5.156757,7.056035555,-2.2212,5.3856
9:01:39,23.6219,34.9305,52.853,79.6821,23.7002,98.56,4.51721,5.156845,6.857476151,-2.3076,4.9464
9:01:40,23.6237,34.9303,53.084,79.6821,23.6995,98.56,4.50727,5.157015,5.985685876,-1.8252,5.2524
9:01:41,23.6218,34.9301,53.277,79.7065,23.6999,98.56,4.50395,5.156786,6.661306867,-2.0448,5.472
9:01:42,23.6158,34.9294,53.433,79.7309,23.7011,98.56,4.51442,5.15608,6.181594933,-2.0448,5.166
9:01:43,23.6121,34.929,53.574,79.7065,23.7019,98.56,4.52613,5.15566,6.603625049,-1.9548,5.562
9:01:44,23.6061,34.9278,53.715,79.7065,23.7027,98.56,4.53186,5.154887,6.379882678,-2.0448,5.472
9:01:45,23.6027,34.9266,53.894,79.7797,23.7028,98.56,4.54003,5.15438,6.153932838,-2.0448,5.6916
9:01:46,23.5981,34.9266,54.095,79.7309,23.7042,98.56,4.54188,5.153916,5.676982678,-2.1744,5.3424
9:01:47,23.5988,34.9266,54.318,79.6821,23.7039,98.56,4.53459,5.15399,5.50657621,-2.088,5.166
9:01:48,23.5945,34.9259,54.518,79.7309,23.7047,98.56,4.53762,5.153474,5.1428969,-2.0448,5.2524
9:01:49,23.5938,34.926,54.667,79.7553,23.7049,98.56,4.53894,5.153416,5.423693524,-1.9548,5.2092
9:01:50,23.596,34.926,54.778,79.7553,23.7043,98.56,4.53766,5.153644,4.859923974,-1.8252,5.2524
9:01:51,23.5924,34.9259,54.905,79.7797,23.7053,98.56,4.54557,5.153269,4.972638398,-1.9548,5.5152
9:01:52,23.592,34.9259,55.098,79.7553,23.7054,98.56,4.5495,5.153239,4.972638398,-1.9548,5.5152
9:01:53,23.5894,34.9255,55.343,79.7797,23.7059,98.56,4.55124,5.152923,5.36614281,-1.9548,5.6484
9:01:54,23.5885,34.9255,55.552,79.7797,23.7061,98.56,4.55023,5.152835,4.889825945,-1.9548,5.6052
9:01:55,23.5927,34.9261,55.701,79.7797,23.7053,98.56,4.54502,5.153357,5.36614281,-1.9548,5.7816
9:01:56,23.5978,34.9267,55.82,79.7797,23.7043,98.56,4.52955,5.153976,5.283279305,-1.9548,5.6052
9:01:57,23.5949,34.9259,55.976,79.7553,23.7046,98.56,4.53484,5.153578,5.283279305,-1.9548,5.472
9:01:58,23.5968,34.9266,56.17,79.7797,23.7045,98.56,4.53956,5.153873,5.787543452,-1.9548,5.5152
9:01:59,23.5996,34.9266,56.356,79.7797,23.7037,98.56,4.53449,5.15416,5.759901248,-1.9548,5.4288
9:02:00,23.5907,34.9251,56.535,79.8041,23.7052,98.56,4.53524,5.153056,5.732260388,-1.9548,5.3424
9:02:01,23.5918,34.9251,56.728,79.8041,23.7048,98.56,4.54405,5.153181,5.958033837,-2.088,5.5152
9:02:02,23.591,34.9256,56.914,79.8285,23.7054,98.56,4.54799,5.153167,5.985685876,-2.1744,5.4288
9:02:03,23.5854,34.9252,57.085,79.8285,23.7068,98.56,4.53852,5.152548,5.900429888,-2.0448,5.562
9:02:04,23.5803,34.9245,57.242,79.8529,23.7078,98.56,4.53399,5.151938,6.29456357,-1.9548,5.6484
9:02:05,23.5715,34.9231,57.376,79.8285,23.7093,98.56,4.54849,5.150834,5.985685876,-1.9548,5.5152
9:02:06,23.5574,34.9226,57.546,79.8285,23.7131,98.56,4.55457,5.149333,6.603625049,-2.1312,5.6916
9:02:07,23.552,34.9217,57.785,79.8529,23.7139,98.56,4.54393,5.148663,6.23922895,-2.0016,5.4288
9:02:08,23.5433,34.921,58.03,79.8529,23.716,98.56,4.57009,5.147678,6.098612962,-2.0448,5.3856
9:02:09,23.543,34.9213,58.201,79.8041,23.7163,98.56,4.57639,5.147693,6.575940167,-1.8252,5.6484
9:02:10,23.5457,34.9214,58.328,79.8285,23.7156,98.56,4.5907,5.148002,6.098612962,-1.8252,5.166
9:02:11,23.5395,34.9205,58.446,79.9017,23.7167,98.56,4.59003,5.147244,6.29456357,-1.9548,5.472
9:02:12,23.536,34.9202,58.603,79.8529,23.7175,98.56,4.58321,5.146847,6.068650415,-1.9548,5.562
9:02:13,23.5298,34.9202,58.796,79.9017,23.7193,98.56,4.59136,5.146207,6.688996546,-1.9548,5.562
9:02:14,23.5285,34.9202,58.997,79.8773,23.7196,98.56,4.59156,5.146082,6.857476151,-1.9548,5.6484
9:02:15,23.5282,34.9198,59.197,79.9017,23.7195,98.56,4.58551,5.146008,6.575940167,-1.9548,5.3424
9:02:16,23.5256,34.9191,59.383,79.8529,23.7197,98.56,4.5706,5.145655,7.393321228,-2.0448,5.5152
9:02:17,23.5182,34.9192,59.569,79.0232,23.7219,98.56,4.57242,5.144905,6.887485576,-1.9548,5.3856
9:02:18,23.5135,34.9187,59.725,79.7797,23.7229,98.56,4.60807,5.144376,7.564371929,-1.8252,5.6484
9:02:19,23.5076,34.9185,59.888,79.8773,23.7245,98.56,4.6086,5.143736,7.19692571,-1.9548,5.4288
9:02:20,23.5015,34.9182,60.067,79.8773,23.7261,98.56,4.59955,5.143074,7.252369849,-1.8252,5.166
9:02:21,23.4925,34.9174,60.245,79.8041,23.7281,98.56,4.60411,5.142052,7.36558956,-1.9548,5.2524
9:02:22,23.4878,34.9172,60.431,79.8773,23.7293,98.56,4.61979,5.141545,7.619862324,-1.9548,5.7348
9:02:23,23.4844,34.9174,60.595,79.9505,23.7304,98.56,4.61511,5.141221,8.101086168,-1.692,5.3856
9:02:24,23.4815,34.9176,60.765,79.9505,23.7314,98.56,4.6106,5.140957,7.506577022,-1.692,5.166
9:02:25,23.4796,34.9175,60.944,79.9261,23.7319,98.56,4.62728,5.140751,8.353493701,-1.9548,5.4288
