Time [LST],"Temperature [ITS-90, deg C]","Salinity, Practical [PSU]","Depth [salt water, m], lat = 33.00","Beam Transmission, Chelsea/Seatech/WET Labs CStar [%]","Density [sigma-t, Kg/m^3 ]",Altimeter [m],"Oxygen, SBE 43 [ml/l]",Conductivity [S/m],Heading [deg],Pitching [deg],Rolling [deg]
15:09:29,25.5362,41.5815,12.452,79.5112,28.1564,98.58,2.8788,6.246768,321.3236841,0.3312,5.6052
15:09:30,25.5369,41.6014,12.221,79.4868,28.1712,98.58,2.89205,6.24948,322.1787548,0.8568,6.0444
15:09:31,25.5377,41.6045,11.849,79.5112,28.1733,92.45,2.89525,6.249961,321.3589033,0.6372,5.3856
15:09:32,25.5383,41.6239,11.611,79.5112,28.1878,33.38,2.86345,6.252584,319.8762984,0.1116,4.1112
15:09:33,25.5362,41.6832,11.707,79.5357,28.2334,98.58,2.78978,6.260172,317.5303167,0.1116,3.5388
15:09:34,25.5359,41.6293,12.072,79.4868,28.1927,98.58,2.80905,6.25304,316.1478361,0.1116,3.582
15:09:35,25.5366,41.6078,12.057,79.4868,28.1761,53.5,2.91255,6.250274,316.5721972,0.7704,4.284
15:09:36,25.5373,41.5948,11.424,79.4868,28.166,1.71,2.96424,6.248605,314.4157764,0.8568,3.582
15:09:37,25.5456,41.5575,10.553,79.5112,28.1352,3.52,3.01197,6.244644,311.5411182,0.5508,2.88
15:09:38,25.5444,41.5369,10.032,79.5357,28.1199,4.66,3.12957,6.241745,308.2682218,0.1116,1.782
15:09:39,25.5368,41.4832,10.337,79.5112,28.0816,4.71,3.16814,6.23374,305.4245017,-1.4292,1.0332
15:09:40,25.5375,41.4926,10.702,79.4868,28.0885,4.13,3.38912,6.235086,306.23494,-0.99,2.2644
15:09:41,25.5381,41.5228,10.664,79.5112,28.1112,4.15,3.59391,6.239142,307.1250621,1.2096,3.0096
15:09:42,25.5385,41.5075,10.329,79.4868,28.0995,4.88,3.46992,6.237145,305.9977574,0.198,2.88
15:09:43,25.5387,41.5137,9.978,79.5112,28.1042,5.01,3.22651,6.237992,305.9977574,0.2412,2.8368
15:09:44,25.5394,41.4907,9.911,79.5112,28.0865,4.96,3.04242,6.235014,305.4719216,0.3312,1.692
15:09:45,25.54,41.4673,10.142,79.5357,28.0685,5.05,2.96837,6.232011,305.4719216,0.2844,0.6372
15:09:46,25.5396,41.4658,10.469,79.5112,28.0676,5.03,3.03012,6.231789,305.2302947,0.1116,0.3312
15:09:47,25.5405,41.4722,10.663,79.4868,28.0721,4.93,3.04319,6.232751,306.9385977,0.7236,1.6488
15:09:48,25.5412,41.5025,10.588,79.4868,28.0949,5.1,2.96631,6.236824,307.3560772,0.9,2.484
15:09:49,25.5408,41.589,10.312,79.5112,28.1605,5.35,2.95468,6.248212,308.1793243,1.0332,3.186
15:09:50,25.5409,41.6151,10.036,79.5112,28.1803,5.35,2.91462,6.251664,308.8966375,0.7236,3.6252
15:09:51,25.5417,41.5926,9.998,79.5357,28.163,5.42,2.82761,6.248782,308.5412294,0.1116,2.79
15:09:52,25.5423,41.5666,10.146,79.5357,28.1431,5.42,2.78452,6.245428,307.7246843,0.1116,2.088
15:09:53,25.5428,41.5562,10.317,79.5112,28.135,5.49,2.73309,6.244117,308.2682218,0.7236,2.79
15:09:54,25.5423,41.5556,10.428,79.5112,28.1348,5.69,2.65198,6.243993,308.4491804,0.1116,3.276
15:09:55,25.5419,41.5728,10.465,79.5112,28.1479,54.87,2.58585,6.246214,309.3867805,0.1116,3.7152
15:09:56,25.542,41.5887,10.427,79.5357,28.16,98.58,2.53941,6.248328,310.5604801,0.2844,3.9348
15:09:57,25.5426,41.602,10.248,79.5112,28.1699,98.58,2.48653,6.250148,309.9111775,0.504,3.9348
15:09:58,25.5438,41.6008,10.061,79.5357,28.1685,98.58,2.43667,6.25013,309.9111775,0.5508,4.1976
15:09:59,25.5455,41.5766,10.12,79.4868,28.1497,98.58,2.84651,6.247132,308.7211091,0.1116,4.3308
15:10:00,25.5444,42.1274,10.447,79.5112,28.5677,98.58,4.03517,6.319773,308.0419292,0.1116,4.8132
15:10:01,25.544,42.7611,10.737,79.5112,29.0484,98.58,4.51318,6.403234,308.4491804,0.1116,5.3424
15:10:02,25.5445,42.8346,10.669,79.5112,29.1041,98.58,4.41928,6.412966,307.7246843,-0.0216,4.9464
15:10:03,25.5431,42.8768,10.415,79.5357,29.1365,98.58,4.34638,6.418326,307.0794716,0.1116,5.076
15:10:04,25.5414,42.958,10.131,79.5357,29.1986,98.58,4.32166,6.428772,305.9977574,0.1116,4.0212
15:10:05,25.5413,42.9945,10.324,79.5357,29.2263,98.58,4.29005,6.433578,305.9509394,-0.504,3.3624
15:10:06,25.5428,43.002,11.038,79.5112,29.2316,98.58,4.26166,6.434789,306.8010876,-1.6056,3.5388
15:10:07,25.5438,43.0093,11.969,79.4868,29.2368,98.58,4.2653,6.43591,307.2653321,-1.6488,3.8016
15:10:08,25.5444,43.0864,12.445,79.4868,29.2951,98.58,4.27779,6.446134,309.0751379,0.8136,4.3308
15:10:09,25.5434,43.1086,12.384,79.5112,29.3123,98.58,4.28307,6.448937,309.6927838,1.0764,4.68
15:10:10,25.542,43.1217,12.101,79.5112,29.3227,98.58,4.26614,6.450466,310.4334321,0.5508,4.3308
15:10:11,25.5416,43.1578,11.974,79.5112,29.3502,98.58,4.25306,6.455152,312.0876785,0.1116,4.4604
15:10:12,25.5417,43.1183,12.226,79.5112,29.3202,98.58,4.25812,6.449977,313.1203122,0.1116,3.4056
15:10:13,25.5435,43.1133,12.792,79.5112,29.3158,98.58,4.25462,6.449589,314.5760082,-0.9,3.672
15:10:14,25.5443,43.0665,13.38,79.4868,29.28,98.58,4.23904,6.443557,315.3285847,-0.2844,3.4488
15:10:15,25.5445,43.112,13.692,79.4868,29.3145,98.58,4.26044,6.44958,316.8806756,0.1116,3.5388
15:10:16,25.5443,43.1269,13.743,79.4868,29.3258,98.58,4.27187,6.451516,317.6792757,0.1116,4.374
15:10:17,25.5447,43.1568,13.817,79.4868,29.3484,98.58,4.25502,6.455496,317.5303167,0.1116,3.4488
15:10:18,25.5449,43.1621,14.138,79.4868,29.3524,98.58,4.24966,6.45623,317.7567189,0.1116,2.9664
15:10:19,25.545,43.1633,14.681,79.5112,29.3533,98.58,4.23593,6.456438,318.3943462,0.1116,3.6252
15:10:20,25.5446,43.202,15.149,79.5357,29.3828,98.58,4.24982,6.461498,318.7702539,0.1116,3.276
15:10:21,25.5452,43.2177,15.298,79.5357,29.3945,98.58,4.26802,6.463634,319.4342672,0.1116,3.7584
15:10:22,25.5452,43.2294,15.178,79.5112,29.4033,98.58,4.2637,6.465164,319.9481935,0.1116,4.374
15:10:23,25.545,43.2613,15.103,79.5357,29.4276,98.58,4.25214,6.469329,319.987105,-0.0216,3.978
15:10:24,25.5449,43.2255,15.415,79.5357,29.4005,98.58,4.25656,6.46463,320.0588834,-0.4608,3.5388
15:10:25,25.5406,43.2032,16.063,79.5357,29.3849,98.58,4.26648,6.461199,319.8403224,-1.2528,3.3192
15:10:26,25.5399,43.2257,16.792,79.5112,29.4022,98.58,4.27893,6.464088,319.1773353,-1.8684,3.186
15:10:27,25.54,43.2958,17.141,79.5112,29.4554,98.58,4.25845,6.473325,319.618047,0.0648,3.5388
15:10:28,25.5417,43.3167,16.94,79.5112,29.4707,98.58,4.23341,6.47627,319.1409825,0.1116,3.5388
15:10:29,25.5444,43.2716,16.53,79.5357,29.4356,98.58,4.26623,6.470671,319.8762984,0.1116,3.672
15:10:30,25.5441,43.265,16.239,79.5357,29.4307,98.58,4.27222,6.469756,320.3869105,0.1116,4.1976
15:10:31,25.543,43.2947,16.231,79.5357,29.4536,98.58,4.27039,6.473515,320.2051977,-0.1548,3.5388
15:10:32,25.5391,43.2227,16.506,79.5357,29.4002,98.58,4.25556,6.463581,319.729276,-1.4292,3.0096
15:10:33,25.5339,43.2911,16.923,79.5357,29.4538,98.58,4.24566,6.47193,319.765311,-1.5156,2.79
15:10:34,25.5336,43.321,17.145,79.5112,29.4766,98.58,4.27379,6.475835,321.6458824,0.1116,3.186
15:10:35,25.5366,43.4167,16.989,79.5112,29.5482,98.58,4.29014,6.488752,322.6386366,0.1116,3.8016
15:10:36,25.5402,43.4827,16.534,79.5357,29.5972,98.58,4.27772,6.49785,323.7577898,0.1116,3.978
15:10:37,25.5418,43.503,16.161,79.5357,29.6121,98.58,4.26519,6.500699,323.9649534,-0.0216,3.7584
15:10:38,25.539,43.4337,16.168,79.5357,29.5604,98.58,4.27144,6.491245,325.6782224,-0.7704,3.9348
15:10:39,25.5362,43.3676,16.51,79.5357,29.5111,98.58,4.27199,6.482242,326.6192651,-1.6488,3.186
15:10:40,25.5347,43.3249,16.874,79.5357,29.4792,98.58,4.27232,6.476469,328.3802142,-0.6372,2.9664
15:10:41,25.5347,43.3006,16.978,79.5112,29.4607,98.58,4.27057,6.47328,330.2985929,0.1116,3.5388
15:10:42,25.535,43.3178,16.739,79.4868,29.4737,98.58,4.26322,6.475572,331.3250473,0.1116,3.8016
15:10:43,25.5378,43.3016,16.359,79.5112,29.4605,98.58,4.26424,6.473769,332.1187874,0.1116,3.8016
15:10:44,25.5367,43.3227,16.217,79.5357,29.4769,98.58,4.26232,6.476396,333.7531105,0.0216,3.582
15:10:45,25.5356,43.3361,16.462,79.5357,29.4873,98.58,4.2588,6.478027,336.2842167,0.1116,3.8916
15:10:46,25.5343,43.3138,16.849,79.5112,29.4709,98.58,4.28097,6.474956,338.4076751,0.1116,3.8448
15:10:47,25.5342,43.3227,16.997,79.4868,29.4777,98.58,4.28522,6.476125,339.903642,0.1116,3.3192
15:10:48,25.5346,43.3029,16.788,79.5357,29.4625,98.58,4.28638,6.473561,341.4168843,0.1116,3.5388
15:10:49,25.537,43.3142,16.385,79.5357,29.4703,98.58,4.2678,6.475327,342.710494,0.1116,3.8016
15:10:50,25.5365,43.3242,16.168,79.5357,29.4781,98.58,4.25871,6.476559,345.2430055,0.1116,4.7268
15:10:51,25.5351,43.2993,16.235,79.5357,29.4596,98.58,4.26779,6.473126,346.8583064,0.1116,4.5072
15:10:52,25.5323,43.3305,16.473,79.5357,29.4842,98.58,4.26254,6.476886,347.7486909,-0.0216,3.582
15:10:53,25.5323,43.2985,16.689,79.5357,29.4599,98.58,4.26243,6.472691,349.261899,0.1116,3.5388
15:10:54,25.5329,43.3033,16.792,79.5112,29.4634,98.58,4.26771,6.473407,349.9166864,0.1116,3.4056
15:10:55,25.5325,43.2798,16.785,79.5112,29.4457,98.58,4.27509,6.470264,351.7877817,0.1116,4.284
15:10:56,25.5333,43.2675,16.613,79.5357,29.4361,98.58,4.27426,6.468742,352.6621404,0.1116,4.1544
15:10:57,25.5373,43.2967,16.337,79.5112,29.457,98.58,4.25082,6.473062,354.1272179,0.1116,4.77
15:10:58,25.5374,43.3124,16.203,79.5112,29.4688,98.58,4.25375,6.475137,355.2228746,0.1116,3.978
15:10:59,25.536,43.3524,16.366,79.5357,29.4996,98.58,4.28265,6.480211,357.9437861,0.1116,4.284
15:11:00,25.5333,43.3128,16.686,79.5357,29.4704,98.58,4.27618,6.474684,358.9227759,0.1116,3.9348
15:11:01,25.5341,43.3262,16.864,79.5112,29.4804,98.58,4.26214,6.476569,359.1474073,0.1116,3.8448
15:11:02,25.5356,43.3333,16.707,79.4868,29.4852,98.58,4.25701,6.477674,0.265853371,0.1116,4.284
15:11:03,25.5388,43.3306,16.342,79.5357,29.4822,98.58,4.26207,6.47771,1.384400736,0.1116,4.5072
15:11:04,25.538,43.3461,16.2,79.5357,29.4942,98.58,4.27722,6.479631,2.141068593,0.1116,4.284
15:11:05,25.5372,43.3233,16.415,79.5357,29.4772,98.58,4.26338,6.476541,3.485733232,0.1116,3.8016
15:11:06,25.5357,43.3162,16.735,79.5601,29.4723,98.58,4.23948,6.475445,4.60925884,0.1116,3.978
15:11:07,25.536,43.322,16.831,79.4624,29.4766,98.58,4.25013,6.476252,5.225741734,0.2412,4.374
15:11:08,25.5381,43.3301,16.54,79.5357,29.482,98.58,4.26919,6.477565,6.774382964,0.1116,5.076
15:11:09,25.5403,43.4269,16.108,79.5601,29.5548,98.58,4.24416,6.49052,6.802079094,0.1116,4.1544
15:11:10,25.5395,43.4708,15.951,79.5601,29.5883,98.58,4.2357,6.496162,7.564371929,0.2412,3.8016
15:11:11,25.5382,43.4619,16.226,79.5601,29.582,98.58,4.26243,6.494847,7.846523314,0.1116,3.7152
15:11:12,25.5376,43.4053,16.791,79.5357,29.5393,98.58,4.25835,6.487382,8.779949551,0.1548,3.8016
15:11:13,25.5381,43.3862,17.163,79.5112,29.5247,98.58,4.25301,6.484953,10.11124829,0.198,4.5072
15:11:14,25.5387,43.3914,16.999,79.5112,29.5284,98.58,4.2717,6.485705,11.30782109,0.1116,5.166
15:11:15,25.5394,43.3992,16.418,79.5357,29.5341,98.58,4.28134,6.486784,11.70776485,0.1116,5.076
15:11:16,25.5404,43.3886,15.896,79.5112,29.5257,98.58,4.26612,6.485496,11.79437788,0.1116,4.4172
15:11:17,25.5397,43.3529,15.829,79.5601,29.4988,98.58,4.25723,6.480728,11.93723215,0.1116,3.8016
15:11:18,25.5386,43.3465,16.231,79.5357,29.4943,98.58,4.26065,6.479767,12.76777459,0.0648,3.5388
15:11:19,25.5384,43.3201,16.789,79.5112,29.4744,98.58,4.26697,6.476297,13.54447021,-0.1116,3.8448
15:11:20,25.5389,43.3243,17.02,79.4868,29.4774,98.58,4.25678,6.476931,13.77324807,0.8136,3.8016
15:11:21,25.5401,43.3365,16.781,79.5112,29.4863,98.58,4.26886,6.478662,13.57276063,0.3312,3.8016
15:11:22,25.5404,43.3456,16.23,79.5357,29.4931,98.58,4.2781,6.479867,14.49644894,0.1116,4.1544
15:11:23,25.5409,43.3468,15.872,79.5357,29.4938,98.58,4.28065,6.480075,15.1602727,0.1116,4.1112
15:11:24,25.5399,43.3681,16.073,79.5357,29.5103,98.58,4.26815,6.482749,15.74282964,0.1116,3.7584
15:11:25,25.539,43.359,16.653,79.5357,29.5037,98.58,4.26335,6.481462,17.43598198,-1.6488,3.8916
15:11:26,25.5392,43.3861,17.055,79.5112,29.5242,98.58,4.2557,6.48507,18.05199888,-0.198,3.9348
15:11:27,25.5395,43.4676,16.891,79.5112,29.5859,98.58,4.24783,6.495791,17.40715777,0.2412,3.3192
15:11:28,25.5411,43.4643,16.235,79.5357,29.5829,98.58,4.25723,6.495536,17.2607048,0.3312,3.276
15:11:29,25.5413,43.4841,15.706,79.5112,29.5979,98.58,4.26184,6.498122,19.58956549,0.1116,4.1976
15:11:30,25.5406,43.4551,15.832,79.5601,29.5761,98.58,4.25389,6.494238,20.06707575,0.2412,3.8016
15:11:31,25.5395,43.4467,16.435,79.5112,29.5701,98.58,4.26026,6.493032,21.86370785,-1.692,3.582
15:11:32,25.5381,43.4038,16.993,79.5112,29.538,98.58,4.27723,6.487247,21.7131504,-0.2412,3.1428
15:11:33,25.5396,43.4785,17.023,79.5112,29.5942,98.58,4.27334,6.497242,21.92545754,1.0764,4.1976
15:11:34,25.5402,43.473,16.583,79.5112,29.5898,98.58,4.27262,6.496571,21.56275034,0.594,4.1976
15:11:35,25.541,43.4663,16.068,79.5357,29.5844,98.58,4.27586,6.495772,21.92545754,0.1548,3.7584
15:11:36,25.5402,43.4946,15.889,79.5357,29.6062,98.58,4.27752,6.499374,22.04409217,0.1116,3.8016
15:11:37,25.5397,43.4969,16.083,79.5112,29.6081,98.58,4.27321,6.499619,22.1356076,0.1116,3.582
15:11:38,25.5388,43.5226,16.462,79.5357,29.6279,98.58,4.27862,6.502896,22.61891002,0.1116,3.672
15:11:39,25.5384,43.5177,16.745,79.5112,29.6243,98.58,4.2833,6.502215,22.3163399,0.6372,3.9348
15:11:40,25.5389,43.5706,16.714,79.4868,29.6643,98.58,4.2732,6.509215,21.3829681,0.6372,3.672
15:11:41,25.5372,43.5361,16.416,79.5112,29.6386,98.58,4.27299,6.504466,20.5729693,0.1116,4.0644
15:11:42,25.5353,43.5603,16.14,79.5357,29.6576,98.58,4.26421,6.507381,20.3332579,0.1116,4.1544
15:11:43,25.5335,43.594,16.087,79.5357,29.6838,98.58,4.26686,6.511567,19.44124287,0.2412,3.7152
15:11:44,25.5308,43.628,16.206,79.5357,29.7104,98.58,4.25908,6.515691,19.29305565,0.594,3.978
15:11:45,25.5292,43.5882,16.414,79.5357,29.6808,98.58,4.24571,6.510287,17.61142773,0.9,3.4056
15:11:46,25.5298,43.5793,16.577,79.5357,29.6738,98.58,4.25234,6.509197,15.77140545,0.9468,2.79
15:11:47,25.5279,43.6074,16.599,79.5112,29.6957,98.58,4.26592,6.512639,15.53815336,0.1116,3.8916
15:11:48,25.5272,43.6576,16.442,79.5112,29.7341,98.58,4.2569,6.519135,15.24814628,0.1116,3.8916
15:11:49,25.5261,43.6776,16.188,79.5112,29.7496,98.58,4.26353,6.521597,14.69775238,0.1116,3.672
15:11:50,25.5294,43.6447,16.039,79.5357,29.7236,98.58,4.27957,6.517699,14.23620938,0.1116,3.5388
15:11:51,25.5298,43.5995,16.187,79.438,29.6892,98.58,4.27775,6.51183,12.96995034,0.4608,3.0096
15:11:52,25.5317,43.6315,16.552,79.5601,29.7129,98.58,4.27645,6.516291,12.99817392,0.1116,3.6252
15:11:53,25.5343,43.6197,16.82,79.5357,29.703,98.58,4.26656,6.515083,13.1699368,0.1116,4.1544
15:11:54,25.5312,43.6763,16.737,79.5357,29.747,98.58,4.26773,6.522107,13.2852972,0.1116,4.0644
15:11:55,25.5295,43.6778,16.283,79.5357,29.7487,98.58,4.27393,6.522052,12.96995034,0.1116,3.9348
15:11:56,25.5328,43.6719,15.761,79.5357,29.7432,98.58,4.27937,6.521679,12.73957692,0.1116,3.672
15:11:57,25.5315,43.6105,15.679,79.5357,29.697,98.58,4.26298,6.513465,11.62351876,0.1116,3.3624
15:11:58,25.5309,43.5738,16.088,79.5601,29.6693,98.58,4.25875,6.508597,11.27977605,0.1116,3.4056
15:11:59,25.5325,43.5553,16.699,79.5601,29.6547,98.58,4.25423,6.506391,11.05084334,0.1116,3.0996
15:12:00,25.5322,43.627,17.019,79.5357,29.7093,98.58,4.24351,6.515773,10.93877841,0.2412,3.8016
15:12:01,25.5313,43.6865,16.825,79.5357,29.7547,98.58,4.25854,6.523452,11.10922741,0.1548,3.8448
15:12:02,25.5331,43.7403,16.274,79.5357,29.795,98.58,4.2632,6.530707,10.48161439,0.2844,3.7584
15:12:03,25.5344,43.7575,15.908,79.5112,29.8076,98.58,4.26193,6.533108,9.715730667,0.1116,3.6252
15:12:04,25.5331,43.7571,16.124,79.5112,29.8078,98.58,4.26452,6.532898,8.49713752,0.1116,2.9232
15:12:05,25.5318,43.7501,16.407,79.5357,29.8028,98.58,4.26392,6.531835,7.959899939,0.504,3.582
15:12:06,25.5326,43.769,16.518,79.5112,29.8169,98.58,4.2591,6.534409,7.310131422,0.6372,3.672
15:12:07,25.5335,43.8758,16.302,79.5357,29.8977,98.58,4.2462,6.548505,6.322233087,0.6372,3.8016
15:12:08,25.5355,43.9382,15.862,79.5357,29.9444,98.58,4.24534,6.556902,6.746688425,0.9468,4.68
15:12:09,25.5373,43.9639,15.415,79.5601,29.9634,98.58,4.25748,6.560473,5.564140422,0.6372,4.374
15:12:10,25.5355,43.9714,15.288,79.5601,29.9697,98.58,4.26072,6.56122,4.04615239,0.198,3.9348
15:12:11,25.5346,43.9319,15.63,79.5112,29.94,98.58,4.2657,6.555954,3.373232016,0.1116,3.8016
15:12:12,25.5346,43.9063,15.891,79.5112,29.9205,98.58,4.27899,6.552612,2.056213916,0.4176,4.1112
15:12:13,25.5349,43.8576,15.928,79.5357,29.8835,98.58,4.27143,6.546274,1.189545838,0.2412,4.0212
15:12:14,25.5342,43.8735,15.577,79.5112,29.8958,98.58,4.23313,6.548259,0.572967345,0.1116,4.2408
15:12:15,25.5338,43.8787,15.272,79.5601,29.8998,98.58,4.21796,6.54886,0.37815489,0.1116,4.2408
15:12:16,25.5345,43.9004,15.19,79.5601,29.916,98.58,4.2374,6.551792,358.9777891,0.2412,3.5388
15:12:17,25.5342,43.8679,15.264,79.5357,29.8915,98.58,4.25672,6.547503,357.5515792,0.198,3.2292
15:12:18,25.5349,43.9829,15.509,79.5357,29.9786,98.58,4.26456,6.56266,356.2065404,0.1116,2.8368
15:12:19,25.5352,44.0706,15.702,79.5357,30.0451,98.58,4.2653,6.574184,356.1215522,0.1116,3.7584
15:12:20,25.5354,44.0772,15.687,79.5112,30.05,98.56,4.26454,6.575078,355.2504719,0.1116,3.6252
15:12:21,25.5351,44.0588,15.553,79.5357,30.0361,98.58,4.25958,6.572615,354.3805926,0.1116,3.8016
15:12:22,25.5348,44.043,15.523,79.5357,30.0243,98.58,4.24547,6.570518,353.5071053,0.1116,3.5388
15:12:23,25.5356,44.0372,15.634,79.5112,30.0196,98.58,4.24323,6.569852,353.0848117,0.1116,3.7584
15:12:24,25.5356,44.0307,15.73,79.5112,30.0147,98.58,4.24402,6.569023,351.9290068,0.1116,3.2292
15:12:25,25.5322,43.9627,15.648,79.5357,29.9641,98.56,4.2671,6.559671,351.1365568,0.1116,3.0996
15:12:26,25.5267,43.9077,15.387,79.5601,29.9241,98.56,4.26963,6.551755,350.7954255,0.1116,3.4056
15:12:27,25.5201,43.9265,15.096,79.5601,29.9405,98.56,4.24996,6.553367,351.9845572,0.1116,4.0212
15:12:28,25.5119,43.9035,15.021,79.5601,29.9256,98.56,4.27126,6.549306,351.5028625,0.1116,3.4056
15:12:29,25.5167,43.8634,15.326,79.5357,29.8937,98.58,4.29298,6.54469,351.0228822,0.1116,2.79
15:12:30,25.5312,43.8237,15.914,79.4868,29.8589,98.58,4.28402,6.541369,351.3916174,-0.1548,3.0564
15:12:31,25.5297,43.8025,16.301,79.5357,29.8433,98.56,4.27988,6.538411,351.5885918,0.3312,3.3624
15:12:32,25.5234,43.7854,16.152,79.5357,29.8323,98.58,4.25453,6.535364,352.0123296,0.1116,3.672
15:12:33,25.5178,43.8046,15.563,79.5357,29.8487,98.56,4.26087,6.537137,352.1257139,0.1116,4.0212
15:12:34,25.5152,43.8109,14.922,79.5112,29.8543,98.58,4.26848,6.537601,352.2945759,0.1116,3.672
15:12:35,25.5152,43.7537,14.832,79.5357,29.8109,98.58,4.27799,6.530124,352.6344104,0.1116,3.4956
15:12:36,25.5203,43.7087,15.309,79.5357,29.7751,98.56,4.28918,6.524878,352.9716755,-0.6372,3.0096
15:12:37,25.5247,43.693,15.964,79.5112,29.7618,98.58,4.26973,6.523424,352.0701826,-1.3392,2.6136
15:12:38,25.5215,43.7074,16.217,79.5112,29.7737,98.56,4.26333,6.524924,351.5607898,0.7704,2.88
15:12:39,25.5155,43.7109,15.964,79.5112,29.7783,98.58,4.2583,6.524597,351.7020961,0.9468,3.8016
15:12:40,25.5149,43.683,15.449,79.5357,29.7573,98.56,4.23266,6.520843,351.6743022,0.4176,3.8448
15:12:41,25.5141,43.6616,15.181,79.5357,29.7413,98.58,4.23945,6.517926,351.078564,0.1116,3.1428
15:12:42,25.5139,43.622,15.3,79.5357,29.7113,98.56,4.25859,6.51272,350.9091719,0.1116,2.9232
15:12:43,25.5158,43.6075,15.389,79.5357,29.6997,98.56,4.25787,6.511067,350.5120601,0.1116,3.5388
15:12:44,25.5127,43.6433,15.396,79.5357,29.7278,98.58,4.27115,6.515364,349.9166864,0.1116,3.5388
15:12:45,25.5123,43.6358,15.329,79.5357,29.7222,98.56,4.26116,6.514328,349.6884819,-0.0216,4.0644
15:12:46,25.5117,43.681,15.284,79.5357,29.7568,98.58,4.24496,6.520179,349.6884819,0.1116,4.1112
15:12:47,25.5067,43.7381,15.284,79.5601,29.8017,98.58,4.24009,6.527015,348.7763058,-0.0216,3.582
15:12:48,25.5042,43.7561,15.321,79.5601,29.8162,98.56,4.25635,6.529061,349.0612216,0.1116,3.5388
15:12:49,25.5037,43.771,15.343,79.5357,29.8277,98.56,4.25464,6.530943,348.2922351,0.3312,3.1428
15:12:50,25.4998,43.7246,15.365,79.5357,29.7937,98.56,4.26219,6.524379,348.0346565,0.594,3.5388
15:12:51,25.4976,43.6566,15.38,79.5112,29.7428,98.58,4.25143,6.515192,347.7768323,0.1116,3.9348
15:12:52,25.5008,43.5938,15.343,79.5357,29.6941,98.58,4.24975,6.507381,347.891712,0.1116,4.1112
15:12:53,25.5004,43.6376,15.261,79.5112,29.7275,98.58,4.26282,6.513048,347.7205465,0.1116,3.4488
15:12:54,25.5017,43.6654,15.156,79.5601,29.7481,98.56,4.26878,6.516854,348.6337429,0.1116,4.4172
15:12:55,25.5017,43.5816,15.164,79.5112,29.6845,98.56,4.28139,6.505873,348.9187984,0.1116,4.0644
15:12:56,25.5021,43.5241,15.275,79.5601,29.6408,98.56,4.27067,6.498403,349.77466,0.1116,4.0212
15:12:57,25.4981,43.5555,15.409,79.5357,29.6659,98.58,4.26624,6.502007,350.256366,0.594,3.672
15:12:58,25.4981,43.5324,15.439,79.5357,29.6483,98.58,4.2698,6.498994,350.3144953,0.3312,3.672
15:12:59,25.4982,43.5218,15.35,79.5601,29.6402,98.58,4.24289,6.497605,350.3981839,0.3312,3.8916
15:13:00,25.4932,43.5991,15.193,79.5601,29.7005,98.56,4.24125,6.50709,350.6816425,0.1116,4.1976
15:13:01,25.4931,43.5198,15.111,79.5112,29.6403,98.56,4.26804,6.496689,351.447244,0.1116,4.77
15:13:02,25.4983,43.4542,15.193,79.4868,29.5889,98.56,4.27954,6.488742,352.2668224,-0.0216,4.1544
15:13:03,25.4993,43.4149,15.357,79.5357,29.5588,98.58,4.27214,6.483738,352.9716755,-0.0216,3.8916
15:13:04,25.4997,43.3915,15.454,79.5357,29.5409,98.56,4.26296,6.480728,352.9162518,0.1116,3.186
15:13:05,25.5039,43.3481,15.395,79.5357,29.5066,98.56,4.26812,6.475563,353.1425238,0.1116,3.4056
15:13:06,25.5123,43.3476,15.268,79.5601,29.5036,98.56,4.25937,6.476541,353.7054364,0.1116,4.2408
15:13:07,25.5141,43.3728,15.201,79.5601,29.5221,98.56,4.25761,6.480084,354.2400988,0.2412,4.5504
15:13:08,25.5103,43.3794,15.29,79.5845,29.5283,98.56,4.2709,6.480456,354.5210526,0.1116,4.4604
15:13:09,25.5047,43.3521,15.447,79.5601,29.5094,98.56,4.29234,6.476188,355.140076,0.2412,4.1544
15:13:10,25.5029,43.4153,15.499,79.5357,29.5579,98.56,4.28795,6.484254,355.8412594,0.198,4.1976
15:13:11,25.5031,43.3566,15.387,79.4868,29.5133,98.56,4.26298,6.476568,356.9068174,0.1116,4.374
15:13:12,25.5118,43.3362,15.185,79.5112,29.495,98.56,4.27302,6.474974,358.5307752,0.198,4.7268
15:13:13,25.5114,43.3518,15.088,79.4868,29.507,98.56,4.27858,6.476976,359.6493476,-0.0216,4.9464
15:13:14,25.5111,43.3726,15.162,79.5601,29.5229,98.56,4.26497,6.479676,0.35065236,0.1116,4.1112
15:13:15,25.5092,43.3503,15.4,79.5601,29.5066,98.56,4.26575,6.476514,1.35689089,0.1116,4.0212
15:13:16,25.5055,43.3687,15.572,79.5357,29.5217,98.56,4.25843,6.478481,1.609076992,0.1116,3.4056
15:13:17,25.5075,43.3651,15.668,79.4868,29.5184,98.56,4.26184,6.478254,2.980724879,0.1116,4.0644
15:13:18,25.5055,43.3523,15.675,79.5601,29.5093,98.56,4.26526,6.476324,4.216189761,0.1116,4.5504
15:13:19,25.5064,43.3922,15.697,79.5601,29.5393,98.56,4.26326,6.481662,4.636850583,0.1116,4.4172
15:13:20,25.508,43.4125,15.742,79.5357,29.5542,98.56,4.26608,6.484544,5.225741734,0.1116,4.374
15:13:21,25.507,43.3832,15.823,79.5357,29.5323,98.56,4.27368,6.480574,5.478947372,0.1116,4.8132
15:13:22,25.5064,43.3249,15.935,79.5112,29.4882,98.56,4.28777,6.472854,6.887485576,0.1116,4.8132
15:13:23,25.5068,43.2766,16.091,79.5601,29.4514,98.56,4.29381,6.466578,7.816449009,0.1116,4.8996
15:13:24,25.5073,43.271,16.224,79.5357,29.447,98.56,4.26623,6.465917,8.977117815,0.1116,4.4172
15:13:25,25.5068,43.3372,16.358,79.5357,29.4974,98.56,4.26273,6.474539,9.685504679,0.1116,4.3308
15:13:26,25.5062,43.3187,16.536,79.5601,29.4835,98.56,4.28047,6.472048,10.85242395,0.1116,4.4604
15:13:27,25.505,43.2428,16.789,79.5601,29.4263,98.56,4.28592,6.461952,10.65180419,0.1116,3.8916
15:13:28,25.5057,43.2399,17.064,79.5601,29.4239,98.56,4.28649,6.461681,11.30782109,0.1116,3.8448
15:13:29,25.5089,43.2225,17.287,79.5357,29.4097,98.56,4.28244,6.459816,11.79437788,0.1116,3.8448
15:13:30,25.5093,43.1754,17.443,79.4868,29.3738,98.56,4.27246,6.453681,12.82417935,0.1116,4.4604
15:13:31,25.509,43.1483,17.599,79.4136,29.3533,98.56,4.26403,6.45009,12.9111615,0.1116,4.68
15:13:32,25.5091,43.1539,17.799,79.4624,29.3576,98.56,4.27717,6.45085,13.6883149,0.1116,4.5504
15:13:33,25.5105,43.119,17.985,79.5601,29.3307,98.56,4.27763,6.446454,14.23620938,0.1116,4.5072
15:13:34,25.5096,43.1395,18.156,79.4868,29.3465,98.56,4.28448,6.449041,14.40887998,0.198,4.0644
15:13:35,25.508,43.215,18.342,79.5357,29.4043,98.56,4.28722,6.458767,13.91723321,0.3744,3.672
15:13:36,25.5034,43.2379,18.595,79.5601,29.4231,98.56,4.2739,6.461202,14.17710603,0.1116,4.1544
15:13:37,25.5067,43.26,18.877,79.5601,29.4389,98.56,4.26211,6.464533,14.43727695,0.1116,3.8016
15:13:38,25.5056,43.2301,19.122,79.5357,29.4165,98.56,4.26942,6.460487,15.10329315,0.198,4.1112
15:13:39,25.4983,43.2157,19.278,79.5601,29.4079,98.56,4.28009,6.457691,14.81388207,0.1116,4.0644
15:13:40,25.4841,43.1679,19.412,79.5601,29.3761,98.56,4.26081,6.44963,14.98700731,0.1116,4.4172
15:13:41,25.4903,43.1492,19.576,79.5601,29.36,98.56,4.26577,6.447966,14.72618657,0.1116,4.5072
15:13:42,25.4925,43.1643,19.792,79.5601,29.3707,98.56,4.27477,6.450236,15.24814628,0.1116,4.5504
15:13:43,25.4837,43.1266,20.029,79.5601,29.345,98.56,4.27436,6.444196,15.5976312,0.1116,4.5936
15:13:44,25.4548,43.1063,20.223,79.5601,29.3387,98.56,4.28255,6.437923,15.33605661,0.1116,3.7584
15:13:45,25.4532,43.0378,20.401,79.5601,29.2872,98.56,4.29123,6.428744,16.58754262,0.1116,4.68
15:13:46,25.4538,43.0199,20.624,79.4868,29.2735,98.56,4.29655,6.426486,16.20769059,0.1116,4.3308
15:13:47,25.4443,43.0201,20.885,79.5845,29.2766,98.56,4.28845,6.42534,16.58754262,0.1116,4.68
15:13:48,25.4512,43.0064,21.123,79.5601,29.264,98.56,4.27625,6.42441,16.44172551,0.1116,4.4604
15:13:49,25.4158,43.0365,21.317,79.4624,29.2981,98.56,4.26276,6.423932,16.76219058,-0.0216,4.4604
15:13:50,25.412,43.0202,21.458,79.5357,29.2869,98.56,4.27671,6.421332,17.34712193,0.1116,4.68
15:13:51,25.4064,43.0338,21.599,79.5601,29.299,98.56,4.27159,6.422425,17.43598198,0.198,4.4604
15:13:52,25.4078,43.0382,21.8,79.5601,29.3019,98.56,4.28213,6.423183,18.28838609,0.1116,4.68
15:13:53,25.4076,43.0682,22.038,79.5112,29.3248,98.56,4.29138,6.427102,19.05526447,0.1116,4.6368
15:13:54,25.4019,43.0371,22.284,79.3404,29.303,98.56,4.2886,6.422317,19.61875977,0.1116,4.6368
15:13:55,25.3904,42.9891,22.515,79.3404,29.2702,98.56,4.30567,6.414609,20.39437328,0.1116,4.6368
15:13:56,25.3849,43.0015,22.709,79.4624,29.2814,98.56,4.30581,6.415557,21.32144968,0.1116,4.7268
15:13:57,25.3651,42.9819,22.857,79.5601,29.2728,98.56,4.30256,6.410523,21.95510691,0.1116,4.68
15:13:58,25.3673,42.9681,23.006,79.5357,29.2616,98.56,4.29601,6.408999,23.47069692,0.1116,4.8132
15:13:59,25.3679,42.9677,23.222,79.5357,29.2611,98.56,4.28242,6.409026,24.6352436,0.1116,4.68
15:14:00,25.3634,43.018,23.505,79.3648,29.3007,98.56,4.28705,6.415071,26.84124747,0.1116,5.2956
15:14:01,25.3424,43.0633,23.751,79.4868,29.3417,98.56,4.29142,6.418383,28.07065349,-0.0216,5.0328
15:14:02,25.35,43.0535,23.914,79.3892,29.3319,98.56,4.30393,6.418058,28.96269127,-0.0216,4.68
15:14:03,25.3563,43.0433,24.048,79.5601,29.3222,98.56,4.29361,6.417517,30.80247708,0.1116,5.0328
15:14:04,25.3511,43.0353,24.219,79.5845,29.3178,98.56,4.27307,6.415838,32.47964842,0.1116,4.9896
15:14:05,25.345,43.0644,24.465,79.4624,29.3418,98.56,4.2759,6.418889,34.76417354,0.1116,5.076
15:14:06,25.3282,43.0228,24.725,79.5357,29.3155,98.56,4.26945,6.411364,36.86989765,0.1116,5.076
15:14:07,25.316,42.9935,24.941,79.5112,29.2971,98.56,4.2676,6.406016,38.82030788,0.1116,5.0328
15:14:08,25.3148,42.9306,25.104,79.5601,29.2498,98.56,4.28363,6.397641,40.30677819,-0.0216,4.8132
15:14:09,25.3151,42.8759,25.275,79.5357,29.2081,98.56,4.28605,6.390522,42.65949844,0.1116,5.2956
15:14:10,25.2836,42.7997,25.461,79.5845,29.1603,98.56,4.28692,6.376629,45.26421347,-0.0216,5.0328
15:14:11,25.2166,42.8461,25.677,79.5601,29.2167,98.56,4.29694,6.374372,47.66331237,0.1116,5.3856
15:14:12,25.1837,42.8755,25.908,79.5601,29.2494,98.56,4.31216,6.374139,49.99960396,0.1116,5.4288
15:14:13,25.1786,42.8889,26.123,79.5845,29.2612,98.56,4.29646,6.375264,52.50439177,0.1116,5.166
15:14:14,25.2339,42.7944,26.302,79.5845,29.172,98.56,4.28103,6.369802,55.30965907,-0.1548,5.2956
15:14:15,25.1552,42.8073,26.458,79.5601,29.2066,98.56,4.30009,6.361718,57.16969875,-0.2844,4.9464
15:14:16,25.1116,42.8295,26.629,79.5601,29.2372,98.56,4.32269,6.359193,59.62790244,0.1116,5.2524
15:14:17,25.1055,42.8269,26.852,79.5845,29.2372,98.56,4.32707,6.358106,62.34025537,0.1116,5.166
15:14:18,25.1009,42.8319,27.134,79.6333,29.2424,98.56,4.32225,6.358205,64.40099104,0.1116,5.166
15:14:19,25.1021,42.8175,27.409,79.6333,29.2311,98.56,4.32407,6.356479,66.34814182,0.0648,5.2092
15:14:20,25.1061,42.7822,27.625,79.6577,29.203,98.56,4.3179,6.352391,68.53480002,0.0216,5.3856
15:14:21,25.1062,42.7527,27.692,79.3648,29.1806,98.56,4.32454,6.348545,70.95805836,0.1116,5.2956
15:14:22,25.1039,42.7475,27.602,79.5845,29.1774,98.56,4.33372,6.347584,72.85465379,0.1116,4.9464
15:14:23,25.1009,42.7296,27.557,79.6577,29.1648,98.56,4.33228,6.344872,74.65719222,0.1116,5.1192
15:14:24,25.1242,42.7251,27.616,79.6577,29.154,98.56,4.32889,6.347189,76.93646026,0.1116,5.2092
15:14:25,25.0931,42.7702,27.69,79.6577,29.198,98.56,4.32287,6.349219,79.85332698,-0.0216,4.9464
15:14:26,25.0953,42.7541,27.734,79.6577,29.1851,98.56,4.31971,6.347378,81.98845274,0.1116,5.0328
15:14:27,25.0822,42.8045,27.719,79.6577,29.2275,98.56,4.31098,6.352328,84.33729011,0.1116,4.4604
15:14:28,25.0692,42.7637,27.652,79.6577,29.2006,98.56,4.31379,6.345385,86.88238799,0.1116,4.5072
15:14:29,25.071,42.7406,27.577,79.6821,29.1825,98.56,4.32075,6.342601,57.68908261,0.1116,4.374
15:14:30,25.069,42.7251,27.562,79.6821,29.1714,98.56,4.31434,6.340329,276.7052278,-0.2844,4.5936
15:14:31,25.0659,42.7047,27.621,79.6821,29.1569,98.56,4.31404,6.337286,263.2947722,0.1116,5.0328
15:14:32,25.058,42.6748,27.717,79.6577,29.1366,98.56,4.31047,6.332413,228.7534928,0.1116,5.0328
15:14:33,25.0472,42.6757,27.739,79.6333,29.1407,98.56,4.32497,6.331193,117.6004426,0.1116,4.68
15:14:34,25.0282,42.6857,27.657,79.6821,29.1542,98.56,4.33487,6.330135,93.5878694,0.198,4.8996
15:14:35,25.0455,42.709,27.568,79.7065,29.1665,98.56,4.31864,6.335312,95.66270989,0.1116,4.374
15:14:36,25.0352,42.6899,27.56,79.7065,29.1553,98.56,4.32808,6.331543,97.81174478,-0.0216,5.166
15:14:37,25.0418,42.6613,27.642,79.7065,29.1315,98.56,4.32459,6.328637,100.146673,-0.0216,4.7268
15:14:38,25.0381,42.6781,27.716,79.6577,29.1454,98.56,4.31443,6.330377,102.3014992,0.1116,4.3308
15:14:39,25.0428,42.6854,27.709,79.6821,29.1494,98.56,4.31948,6.331902,104.0226535,0.1116,5.166
15:14:40,25.0407,42.6866,27.634,79.7065,29.151,98.56,4.32852,6.331803,105.7616551,0.1116,5.1192
15:14:41,25.0419,42.7199,27.559,79.7065,29.1759,98.56,4.32655,6.33629,107.8914983,0.1116,5.2956
15:14:42,25.0446,42.7074,27.53,79.7065,29.1656,98.56,4.32115,6.33498,110.6096929,0.1116,5.166
15:14:43,25.0369,42.6914,27.544,79.7065,29.1559,98.56,4.3082,6.331947,112.8742785,0.1116,5.166
15:14:44,25.0299,42.6697,27.596,79.7309,29.1416,98.56,4.32062,6.32826,115.3378549,-0.0216,4.9464
15:14:45,25.0282,42.6994,27.671,79.7065,29.1646,98.56,4.338,6.331911,117.481485,0.1116,4.8132
15:14:46,25.0176,42.6671,27.686,79.7309,29.1435,98.56,4.33984,6.326404,119.6434617,0.1116,5.166
15:14:47,25.0083,42.6433,27.626,79.7553,29.1283,98.56,4.323,6.322153,122.1002072,0.1116,4.4172
15:14:48,25.0187,42.6274,27.544,79.7309,29.113,98.56,4.33205,6.321355,123.5462519,0.1116,4.5504
15:14:49,25.0297,42.6757,27.521,79.7065,29.1462,98.56,4.3412,6.329013,124.9872162,0.1116,5.0328
15:14:50,25.012,42.6607,27.559,79.7065,29.1403,98.56,4.33616,6.324861,126.8928098,0.1116,4.8996
15:14:51,25.0101,42.6651,27.633,79.6577,29.1443,98.56,4.32721,6.325202,128.1348097,0.1116,5.0328
15:14:52,25.0027,42.6798,27.693,79.7309,29.1578,98.56,4.33184,6.326216,130.9046788,0.1116,4.68
15:14:53,25.0055,42.6505,27.685,79.7309,29.1347,98.56,4.331,6.322736,132.4216919,0.1116,4.77
15:14:54,25.0105,42.6438,27.603,79.7553,29.128,98.56,4.31246,6.322476,134.9729934,0.1116,3.8016
15:14:55,25.0352,42.632,27.513,79.7065,29.1113,98.56,4.31219,6.323991,135.7972109,0.1116,4.4172
15:14:56,25.029,42.6278,27.506,79.7553,29.11,98.56,4.32823,6.322673,137.3778879,0.1116,4.1112
15:14:57,25.0297,42.615,27.572,79.7309,29.1001,98.56,4.31815,6.321103,137.8711608,0.0648,4.8132
15:14:58,25.029,42.611,27.662,79.7309,29.0973,98.56,4.32562,6.320503,139.8762984,0.0216,4.8132
15:14:59,25.031,42.6802,27.699,79.6821,29.1492,98.56,4.33728,6.329776,141.6108034,0.1116,4.4172
15:15:00,25.0312,42.6904,27.624,79.7309,29.1569,98.56,4.34426,6.331113,143.6867172,0.1116,4.0212
15:15:01,25.0493,42.6688,27.534,79.7553,29.1348,98.56,4.33705,6.330538,145.1660521,0.1116,3.978
15:15:02,25.0581,42.6298,27.512,79.7553,29.1024,98.56,4.34127,6.326537,145.405829,-0.0216,4.77
15:15:03,25.054,42.6187,27.586,79.7553,29.0953,98.56,4.34633,6.324591,146.9890026,0.1116,4.8132
15:15:04,25.0599,42.6385,27.66,79.7553,29.1085,98.56,4.35036,6.32791,148.4447848,0.1116,4.5936
15:15:05,25.0572,42.6923,27.682,79.7797,29.1502,98.56,4.34472,6.334585,150.4277953,0.1116,4.5072
15:15:06,25.0622,42.7225,27.615,79.8041,29.1716,98.56,4.3381,6.339153,152.6541828,0.1116,4.374
15:15:07,25.0608,42.7475,27.555,79.7797,29.191,98.56,4.32474,6.342233,154.4689606,0.1116,4.3308
15:15:08,25.0618,42.7132,27.532,79.7797,29.1646,98.56,4.31618,6.337879,155.1477337,0.1116,5.0328
15:15:09,25.0696,42.6752,27.606,79.7797,29.1333,98.56,4.32425,6.333894,157.0156303,0.1116,4.9464
15:15:10,25.0646,42.6448,27.703,79.7309,29.1118,98.56,4.31462,6.329318,158.7375838,0.1116,4.9464
15:15:11,25.0717,42.658,27.732,79.7553,29.1195,98.56,4.30247,6.33192,160.7360801,0.1116,4.9464
15:15:12,25.0698,42.6794,27.642,79.7797,29.1364,98.56,4.31305,6.334468,163.1492281,0.1116,4.284
15:15:13,25.0663,42.666,27.53,79.7797,29.1274,98.56,4.32355,6.332278,165.0414612,0.1116,4.4172
15:15:14,25.0708,42.6612,27.507,79.7553,29.1223,98.56,4.31094,6.332207,166.7429594,-0.0216,4.3308
15:15:15,25.0742,42.6827,27.589,79.7309,29.1376,98.56,4.30127,6.335446,167.891712,-0.0216,4.4172
15:15:16,25.0779,42.7042,27.678,79.7797,29.1526,98.56,4.31056,6.338713,168.9771769,0.1116,4.6368
15:15:17,25.0862,42.6875,27.686,79.8041,29.1374,98.56,4.30561,6.337555,171.1922213,0.1116,4.4172
15:15:18,25.0929,42.6926,27.603,79.7797,29.1391,98.56,4.28224,6.339054,172.3523898,0.1116,4.5936
15:15:19,25.0853,42.7233,27.521,79.7553,29.1648,98.56,4.27707,6.342107,174.1825093,0.1116,4.4172
15:15:20,25.0873,42.7097,27.543,79.8041,29.1539,98.56,4.29728,6.340589,176.0089871,0.1116,4.5072
15:15:21,25.0871,42.6795,27.617,79.8041,29.131,98.56,4.3174,6.336631,177.6915015,0.1116,4.3308
15:15:22,25.0884,42.6667,27.683,79.7797,29.1209,98.56,4.32046,6.335114,1.55405208,-0.0216,4.68
15:15:23,25.0761,42.701,27.713,79.7797,29.1508,98.56,4.29798,6.338076,0.181054965,0.1116,4.9896
15:15:24,25.0724,42.6864,27.668,79.8041,29.1409,98.56,4.31376,6.335715,358.1937379,0.1116,4.8132
15:15:25,25.0824,42.6728,27.579,79.8285,29.1274,98.56,4.32894,6.335159,183.9060133,0.1116,4.4604
15:15:26,25.0872,42.6917,27.511,79.8285,29.1403,98.56,4.32299,6.338219,186.4075568,0.1116,3.978
15:15:27,25.0762,42.6613,27.519,79.8041,29.1207,98.56,4.31443,6.332897,187.4233658,0.1116,4.4172
15:15:28,25.071,42.6509,27.585,79.8285,29.1144,98.56,4.32888,6.330906,188.0154428,0.1116,4.77
15:15:29,25.0738,42.6466,27.645,79.8041,29.1103,98.56,4.33436,6.33069,190.1694533,0.1116,4.4172
15:15:30,25.0691,42.6762,27.622,79.8285,29.1342,98.56,4.32287,6.333974,191.536959,0.1116,4.4172
15:15:31,25.0591,42.6863,27.533,79.8041,29.145,98.56,4.31872,6.334037,193.4289859,0.0648,4.5504
15:15:32,25.0414,42.7072,27.465,79.8041,29.1665,98.56,4.3248,6.334567,195.1032931,0.1116,4.1544
15:15:33,25.041,42.675,27.51,79.8041,29.1421,98.56,4.32322,6.330332,196.4990831,0.1116,4.4172
15:15:34,25.0399,42.6745,27.636,79.8041,29.1421,98.56,4.31196,6.330135,198.0809271,0.1116,4.1112
15:15:35,25.0454,42.7136,27.718,79.8041,29.1701,98.56,4.30827,6.335913,199.0552645,0.1116,4.5504
15:15:36,25.0485,42.7308,27.673,79.8285,29.1821,98.56,4.3211,6.338534,200.3039311,0.1116,4.68
15:15:37,25.0407,42.7392,27.554,79.8285,29.191,98.56,4.31889,6.33866,202.4080332,0.1116,4.4172
15:15:38,25.0362,42.7472,27.449,79.8285,29.1985,98.56,4.31582,6.339145,204.3280185,0.1116,4.1976
15:15:39,25.0362,42.7457,27.457,79.8285,29.1973,98.56,4.30998,6.338947,205.6250504,0.1116,4.5504
15:15:40,25.0373,42.718,27.561,79.8041,29.1759,98.56,4.31757,6.335474,206.9980387,0.1116,4.5504
15:15:41,25.0333,42.7015,27.658,79.8041,29.1647,98.56,4.32035,6.332827,208.3567457,0.1116,4.5504
15:15:42,25.0297,42.717,27.68,79.8285,29.1775,98.56,4.31468,6.334397,209.7330738,-0.0216,5.076
15:15:43,25.0303,42.6879,27.598,79.8285,29.1553,98.56,4.33261,6.330682,211.5874949,0.1116,4.9464
15:15:44,25.0306,42.7188,27.486,79.8041,29.1786,98.56,4.32588,6.334738,214.6972456,0.0648,4.284
15:15:45,25.033,42.7606,27.419,79.7797,29.2096,98.56,4.32296,6.340491,216.1030948,0.1116,4.4172
15:15:46,25.0321,42.7673,27.441,79.7797,29.215,98.56,4.32147,6.341237,217.5721514,0.1116,4.77
15:15:47,25.0321,42.7951,27.508,79.8529,29.2361,98.56,4.31287,6.344873,219.9052557,0.0648,4.2408
15:15:48,25.0348,42.78,27.567,79.7553,29.2238,98.56,4.32797,6.343248,220.6019456,0.1116,4.8564
15:15:49,25.0334,42.7782,27.575,79.8285,29.2228,98.56,4.32671,6.342835,222.4696833,0.1116,4.68
15:15:50,25.0353,42.7824,27.545,79.8285,29.2255,98.56,4.31543,6.343625,224.8295441,0.1116,4.68
15:15:51,25.0325,42.8162,27.515,79.8041,29.252,98.56,4.32616,6.347667,226.4322573,0.1116,4.8132
15:15:52,25.0311,42.8053,27.619,79.8285,29.2442,98.56,4.33901,6.346077,228.4174275,0.1116,4.1112
15:15:53,25.0295,42.7872,27.738,79.8285,29.2309,98.56,4.33653,6.343527,230.3934169,0.1116,4.5072
15:15:54,25.0297,42.7737,27.865,79.8285,29.2207,98.56,4.33036,6.341803,231.8206757,-0.0216,4.8132
15:15:55,25.0324,42.776,27.991,79.8285,29.2215,98.56,4.3302,6.34244,234.1937495,0.1116,4.1976
15:15:56,25.0338,42.7583,28.103,79.8041,29.2076,98.56,4.32818,6.340312,235.8529835,0.1116,4.7268
15:15:57,25.0321,42.7609,28.148,79.7797,29.2101,98.56,4.30058,6.340447,237.9515838,0.1116,4.8564
15:15:58,25.0321,42.7562,28.178,79.8041,29.2066,98.56,4.30521,6.339828,240.4121901,0.1116,5.0328
15:15:59,25.0325,42.7633,28.23,79.8285,29.2118,98.56,4.32367,6.340806,242.7028443,0.1116,4.2408
15:16:00,25.0335,42.7569,28.401,79.8285,29.2067,98.56,4.32628,6.340106,244.2687021,0.0648,4.9896
15:16:01,25.0339,42.7749,28.654,79.8041,29.2202,98.56,4.32976,6.342512,246.0697601,0.0648,4.0644
15:16:02,25.0223,42.7726,28.893,79.7797,29.2221,98.56,4.32273,6.34078,247.5600344,0.0648,4.5936
15:16:03,25.0254,42.8152,28.989,79.7797,29.2534,98.56,4.30909,6.346733,248.7677332,0.1116,5.166
15:16:04,25.0327,42.8683,28.989,79.7553,29.2915,98.56,4.31976,6.354549,251.0495894,0.0648,5.2092
15:16:05,25.0325,42.8884,29.086,79.7309,29.3068,98.56,4.32243,6.357147,252.5693075,0.1116,4.9896
15:16:06,25.0304,42.894,29.362,79.7797,29.3117,98.56,4.30909,6.357641,254.9721706,0.1116,4.4604
15:16:07,25.0154,42.958,29.704,79.7797,29.3651,98.56,4.31209,6.364124,256.0913016,0.0648,4.8132
15:16:08,25.0008,42.9657,29.95,79.7797,29.3755,98.56,4.31951,6.363315,257.1820763,0.0648,4.8996
15:16:09,25.016,42.9626,30.032,79.7797,29.3684,98.56,4.33147,6.364817,258.5101479,0.1116,5.166
15:16:10,25.0226,42.9951,30.032,79.7797,29.391,98.56,4.33613,6.369853,259.853327,0.198,4.8132
15:16:11,25.021,42.9882,30.121,79.7797,29.3862,98.56,4.32195,6.368765,260.8660794,0.1116,4.8132
15:16:12,25.0077,42.9739,30.397,79.7797,29.3795,98.56,4.29701,6.365258,261.7934824,-0.0216,4.5504
15:16:13,24.9934,43.0081,30.74,79.7797,29.41,98.56,4.29688,6.367947,262.6039325,0.0648,4.4172
15:16:14,24.9718,42.9975,31.038,79.8041,29.4087,98.56,4.28858,6.363892,263.0632116,-0.0216,4.8132
15:16:15,24.9752,42.9997,31.172,79.7309,29.4093,98.56,4.30327,6.364602,263.2947722,0.0648,4.9464
15:16:16,24.9957,43.041,31.216,79.6333,29.4343,98.56,4.33038,6.372536,263.7835946,0.0648,4.5936
15:16:17,24.9912,43.0527,31.321,79.7797,29.4446,98.56,4.33321,6.373498,276.2164054,0.0648,4.77
15:16:18,24.9848,43.0793,31.566,79.7309,29.4668,98.56,4.3293,6.37618,276.4654184,-0.0216,4.8132
15:16:19,24.9708,43.0731,31.872,79.7797,29.4665,98.56,4.31459,6.373634,276.4654184,0.0648,3.672
15:16:20,24.9199,43.0781,32.184,79.8285,29.4863,98.56,4.30639,6.367941,276.7052278,-0.0216,4.1976
15:16:21,24.8826,43.0935,32.408,79.7797,29.5097,98.56,4.32304,6.365288,276.7052278,-0.0648,4.284
15:16:22,24.8788,43.0671,32.579,79.8041,29.4908,98.56,4.33061,6.361413,276.7052278,0.0648,3.7152
15:16:23,24.8723,43.0624,32.75,79.8041,29.4893,98.56,4.3281,6.360002,276.9367884,0.1116,4.374
15:16:24,24.8981,43.0548,32.922,79.8041,29.4754,98.56,4.3153,6.36224,277.3960675,0.0648,4.5504
15:16:25,24.9196,43.0113,33.138,79.8529,29.4356,98.56,4.32901,6.359282,277.3960675,0.0648,4.8132
15:16:26,24.8749,43.0379,33.368,79.8529,29.4699,98.56,4.33096,6.357171,277.8117448,0.0648,4.3308
15:16:27,24.8439,43.0416,33.607,79.8041,29.4824,98.56,4.33226,6.353783,278.5986133,0.0648,4.374
15:16:28,24.8296,43.0433,33.86,79.8529,29.4881,98.56,4.3343,6.352238,278.7806469,-0.0216,4.0644
15:16:29,24.7966,43.0694,34.091,79.8529,29.5183,98.56,4.30002,6.35152,279.4880512,0.0648,4.3308
15:16:30,24.7673,43.0908,34.277,79.7797,29.5437,98.56,4.29098,6.35065,279.9893544,0.0648,4.5936
15:16:31,24.7658,43.1062,34.456,79.7797,29.5559,98.56,4.28039,6.352465,280.4542838,0.0648,4.77
15:16:32,24.7716,43.0881,34.656,79.8773,29.5403,98.56,4.30113,6.350856,281.3393075,0.0648,4.8132
15:16:33,24.8121,43.0725,34.88,79.8773,29.5158,98.56,4.32277,6.353893,282.1717419,0.0648,4.5072
15:16:34,24.775,43.1357,35.081,79.8285,29.5755,98.56,4.31147,6.357461,282.693364,0.0648,4.6368
15:16:35,24.6356,43.1457,35.281,79.8529,29.6266,98.56,4.30438,6.341357,283.3146548,0.0648,4.8996
15:16:36,24.6145,43.1411,35.489,79.8773,29.6297,98.56,4.28706,6.338144,284.3592014,0.0648,4.7268
15:16:37,24.5854,43.1566,35.727,79.8285,29.6505,98.56,4.30231,6.336529,285.3428078,0.0648,4.77
15:16:38,24.543,43.1466,35.965,79.8041,29.6561,98.56,4.31524,6.329953,286.0708743,0.0648,4.374
15:16:39,24.5146,43.1493,36.188,79.8529,29.667,98.56,4.32092,6.326769,286.8553173,0.0648,4.8564
15:16:40,24.5144,43.1883,36.374,79.8285,29.6967,98.56,4.319,6.331784,288.0696806,0.0648,5.0328
15:16:41,24.5037,43.1655,36.56,79.8285,29.6827,98.56,4.32523,6.327505,288.6946877,0.0648,4.5072
15:16:42,24.5288,43.1642,36.776,79.8773,29.6739,98.56,4.31326,6.330483,290.1223709,0.1116,4.8132
15:16:43,24.5284,43.1629,37.007,79.8041,29.6731,98.56,4.3078,6.330286,291.2322668,0.0648,5.0328
15:16:44,24.5001,43.2015,37.215,79.8285,29.7112,98.56,4.30843,6.33174,292.5836265,0.0648,5.2524
15:16:45,24.5149,43.1721,37.423,79.8529,29.6842,98.56,4.29537,6.329802,293.8623476,0.0648,5.2956
15:16:46,24.4859,43.172,37.609,79.8285,29.6932,98.56,4.30188,6.326169,295.4073848,0.0648,4.9464
15:16:47,24.4844,43.1793,37.817,79.8285,29.6992,98.56,4.31671,6.326932,296.7422267,0.0648,4.9464
15:16:48,24.4613,43.1719,38.048,79.8041,29.7007,98.56,4.32444,6.323121,298.5500454,0.0648,5.1192
15:16:49,24.381,43.193,38.286,79.8285,29.7417,98.56,4.32243,6.315825,299.5878099,-0.0648,5.0328
15:16:50,24.3726,43.2186,38.502,79.7797,29.7638,98.56,4.30972,6.318075,300.8670605,0.0648,5.2956
15:16:51,24.3633,43.2186,38.71,79.8041,29.7667,98.56,4.30093,6.316919,302.4136765,0.0648,5.5152
15:16:52,24.3722,43.2615,38.926,79.7797,29.7965,98.56,4.30969,6.323563,303.9997513,0.0648,5.0328
15:16:53,24.371,43.2496,39.171,79.8529,29.7878,98.56,4.32047,6.321886,304.7908842,0.0648,5.1192
15:16:54,24.3873,43.2201,39.38,79.8285,29.7603,98.56,4.33573,6.320138,306.613209,0.0648,4.8132
15:16:55,24.41,43.2659,39.513,79.7553,29.7881,98.56,4.33105,6.328881,308.8966375,0.0648,5.6052
15:16:56,24.4136,43.3326,39.647,79.7553,29.8378,98.56,4.30629,6.337899,310.3450095,0.0648,4.9464
15:16:57,24.381,43.3209,39.841,79.7553,29.839,98.56,4.30522,6.332327,312.2549531,0.0216,5.3424
15:16:58,24.3544,43.3005,40.138,79.7797,29.8317,98.56,4.28828,6.326389,313.5278245,-0.0216,5.2524
15:16:59,24.3296,43.3076,40.481,79.7553,29.8448,98.56,4.28387,6.324219,314.8918692,-0.0216,5.1192
15:17:00,24.3404,43.3069,40.756,79.7309,29.8409,98.56,4.305,6.325493,315.2479608,0.0648,5.076
15:17:01,24.3406,43.2765,40.89,79.7309,29.8177,98.56,4.32207,6.321628,316.9183415,0.0648,5.2956
15:17:02,24.3374,43.2614,40.942,79.7309,29.8072,98.56,4.31484,6.319297,318.0593853,0.0648,5.2956
15:17:03,24.3257,43.2558,41.038,79.7553,29.8066,98.56,4.3044,6.317119,319.6571484,0.0648,5.2092
15:17:04,24.3324,43.2373,41.269,79.7797,29.7905,98.56,4.29152,6.315595,321.1796921,0.0648,5.3856
15:17:05,24.3283,43.2604,41.619,79.7309,29.8093,98.56,4.30414,6.318069,322.7797927,0.0648,5.166
15:17:06,24.3167,43.2842,41.977,79.7553,29.8309,98.56,4.3088,6.319683,323.7918818,-0.0648,5.7348
15:17:07,24.3164,43.2797,42.245,79.7553,29.8276,98.56,4.29877,6.319083,324.6871956,-0.0648,5.3856
15:17:08,24.3209,43.2985,42.387,79.7553,29.8405,98.56,4.28045,6.322068,325.6421396,0.0648,5.3424
15:17:09,24.3184,43.3319,42.469,79.7065,29.8667,98.56,4.26788,6.326032,327.0873371,-0.0216,5.6484
15:17:10,24.3097,43.334,42.603,79.7553,29.871,98.56,4.29149,6.325234,327.5203516,0.0648,4.9464
15:17:11,24.3132,43.2899,42.834,79.7309,29.8364,98.56,4.31445,6.320016,329.002545,0.0648,5.0328
15:17:12,24.3103,43.2601,43.154,79.7797,29.8147,98.56,4.30661,6.315857,330.7487681,0.0648,5.5152
15:17:13,24.3041,43.2473,43.444,79.7065,29.8068,98.56,4.29853,6.313455,331.5468502,0.1116,5.562
15:17:14,24.3075,43.2271,43.668,79.7553,29.7904,98.56,4.30001,6.311296,332.4346508,0.1116,5.7816
15:17:15,24.3052,43.2236,43.817,79.7553,29.7884,98.56,4.30847,6.31057,333.2203814,0.0648,5.2524
15:17:16,24.3056,43.2261,43.921,79.7797,29.7902,98.56,4.29431,6.310947,334.1892508,0.0648,5.166
15:17:17,24.3059,43.2094,44.055,79.7797,29.7774,98.56,4.29261,6.308841,335.0871013,0.0648,4.68
15:17:18,24.3025,43.2106,44.301,79.7553,29.7794,98.56,4.31492,6.308582,336.8935912,0.1116,5.166
15:17:19,24.3003,43.2004,44.644,79.7797,29.7723,98.56,4.31549,6.307023,337.7728175,-0.0648,5.5152
15:17:20,24.2979,43.2566,45.009,79.7797,29.8158,98.56,4.28077,6.313949,338.4076751,-0.0216,5.4288
15:17:21,24.2986,43.291,45.254,79.7553,29.8418,98.56,4.26941,6.318467,339.5469332,-0.0648,5.7816
15:17:22,24.3013,43.2904,45.359,79.7797,29.8404,98.56,4.28503,6.318727,340.4688072,0.0216,5.562
15:17:23,24.2989,43.309,45.418,79.7309,29.8554,98.56,4.29507,6.320824,341.2088179,-0.1548,4.8564
15:17:24,24.2973,43.3195,45.582,79.7309,29.8638,98.56,4.31403,6.321963,342.5928422,-0.1116,5.2524
15:17:25,24.2971,43.352,45.865,79.7797,29.8886,98.56,4.30769,6.326133,343.4124574,0.0648,4.9896
15:17:26,24.2968,43.3197,46.193,79.8041,29.8642,98.56,4.30925,6.321973,344.3738133,0.0648,5.166
15:17:27,24.2956,43.2879,46.446,79.8041,29.8403,98.56,4.31486,6.31775,344.9536711,-0.0216,4.9464
15:17:28,24.2959,43.2746,46.618,79.7553,29.8301,98.56,4.3025,6.316092,346.0237306,-0.1548,5.166
15:17:29,24.296,43.2692,46.789,79.8041,29.826,98.56,4.30163,6.31542,347.1170522,0.1116,5.3424
15:17:30,24.2907,43.2412,46.975,79.8041,29.8063,98.56,4.31309,6.311164,348.0346565,-0.1548,5.1192
15:17:31,24.2872,43.2198,47.191,79.8285,29.7912,98.56,4.31749,6.30801,349.0051945,-0.0648,4.9896
15:17:32,24.2868,43.2208,47.422,79.7309,29.792,98.56,4.3119,6.308091,350.4260755,-0.0216,5.472
15:17:33,24.2842,43.2552,47.661,79.7797,29.819,98.56,4.29965,6.312186,351.0228822,-0.1548,5.076
15:17:34,24.2833,43.2263,47.877,79.7797,29.7973,98.56,4.30162,6.308387,351.8433516,-0.0216,5.5152
15:17:35,24.2828,43.2008,48.048,79.7797,29.778,98.56,4.31624,6.305055,352.0401001,-0.1548,5.166
15:17:36,24.2745,43.2089,48.242,79.7309,29.7868,98.56,4.32375,6.305073,353.5370905,-0.4176,5.6916
15:17:37,24.271,43.2237,48.488,79.7553,29.7991,98.56,4.32402,6.306543,353.5071053,-0.2844,5.0328
15:17:38,24.2594,43.2258,48.749,79.8041,29.8043,98.56,4.31913,6.305388,354.3529572,-0.2844,5.2956
15:17:39,24.2536,43.2456,49.017,79.8285,29.8212,98.56,4.31098,6.307215,353.6477899,0.1116,4.8996
15:17:40,24.249,43.2118,49.203,79.7553,29.7969,98.56,4.3133,6.302316,354.9698468,-0.0648,5.3856
15:17:41,24.2517,43.2213,49.338,79.7553,29.8033,98.56,4.30452,6.303875,355.3355566,0.0648,5.3856
15:17:42,24.2614,43.2215,49.457,79.7797,29.8004,98.56,4.31458,6.305119,355.6160342,0.1116,5.2956
15:17:43,24.2306,43.2204,49.665,79.7553,29.8091,98.56,4.33058,6.301144,356.1491169,-0.2844,5.2956
15:17:44,24.222,43.2496,49.949,79.7553,29.8339,98.56,4.30957,6.303822,356.626768,0.1116,5.2524
15:17:45,24.2193,43.232,50.269,79.7797,29.8214,98.56,4.29644,6.301252,357.3818177,0.0648,5.562
15:17:46,24.2149,43.2068,50.53,79.7797,29.8036,94.58,4.29938,6.297483,357.4391721,0.0648,5.3424
15:17:47,24.2157,43.2494,50.686,79.7553,29.8358,97.36,4.29454,6.303052,357.6915015,-0.2844,5.1192
15:17:48,24.2236,43.2825,50.798,79.7553,29.8585,98.56,4.28728,6.308283,357.9713055,-0.3744,4.8996
15:17:49,24.2126,43.298,50.955,79.7553,29.8737,98.56,4.29341,6.308901,359.0350935,-0.4176,5.166
15:17:50,24.203,43.2849,51.208,79.7553,29.8667,98.56,4.29311,6.306035,359.8739492,-0.2412,5.2524
15:17:51,24.1896,43.2832,51.521,79.7553,29.8695,98.56,4.31081,6.304164,0.320858042,-0.3312,5.2092
15:17:52,24.1789,43.2422,51.797,79.7309,29.8416,98.56,4.31375,6.297592,0.937400772,-0.0216,5.2524
15:17:53,24.1828,43.21,51.953,79.7309,29.8159,98.56,4.29471,6.293967,1.35689089,0.1116,5.3424
15:17:54,24.193,43.1976,52.043,79.7309,29.8033,98.56,4.30508,6.293645,1.888810987,-0.1116,5.1192
15:17:55,24.1914,43.2226,52.154,79.7309,29.8229,98.56,4.31609,6.296661,2.420893991,-0.5508,5.076
15:17:56,24.141,43.2536,52.385,79.7309,29.862,98.56,4.31538,6.294353,3.513286584,-0.8136,5.076
15:17:57,24.1231,43.3023,52.691,79.7065,29.9046,98.56,4.30973,6.298355,4.216189761,-1.1196,5.2524
15:17:58,24.0913,43.2874,52.996,79.7309,29.903,98.56,4.30518,6.292493,4.945033098,-0.8136,5.3856
15:17:59,24.0814,43.2651,53.235,79.7065,29.8891,98.56,4.2969,6.288432,5.732260388,-0.4608,5.3856
15:18:00,24.0678,43.2643,53.391,79.6821,29.8927,98.56,4.28226,6.286634,6.435232386,-0.6804,5.5152
15:18:01,24.0762,43.2603,53.481,79.7065,29.8871,98.56,4.29942,6.287171,6.661306867,-0.9468,5.076
15:18:02,24.0545,43.2741,53.615,79.6577,29.9042,98.56,4.30605,6.286232,7.36558956,-1.5156,5.2092
15:18:03,23.8202,43.3433,53.846,79.7553,30.0288,98.56,4.30069,6.265831,8.212218311,-1.6056,5.3424
15:18:04,23.8094,43.3524,54.159,79.7065,30.039,98.56,4.29056,6.265644,8.439210203,-1.3392,4.9896
15:18:05,23.5851,43.4052,54.442,79.7065,30.1476,98.56,4.32269,6.244353,8.524945736,-0.9468,4.8996
15:18:06,23.551,43.4228,54.643,79.7065,30.1714,98.56,4.31352,6.24233,9.146536068,-0.3312,5.166
15:18:07,23.5551,43.4649,54.792,79.6821,30.2023,98.56,4.28606,6.248172,9.004961915,-0.6804,4.9464
15:18:08,23.5374,43.4835,54.941,79.6577,30.2218,98.56,4.27327,6.248324,9.715730667,-0.9,4.9896
15:18:09,23.5014,43.4726,55.12,79.6821,30.2244,98.56,4.2538,6.242456,9.685504679,-1.296,4.5936
15:18:10,23.4838,43.4692,55.314,79.7065,30.2272,98.56,4.23546,6.239835,10.71011016,-1.3392,5.2524
15:18:11,23.4772,43.4422,55.523,79.7309,30.2086,98.56,4.23128,6.235618,10.6238213,-0.99,4.9464
15:18:12,23.4771,43.4686,55.761,79.7309,30.2287,98.56,4.23151,6.238953,10.82442247,-1.2528,5.166
15:18:13,23.4807,43.4727,56.022,79.6577,30.2308,98.56,4.22139,6.239933,10.53988796,-0.8136,4.8132
15:18:14,23.4815,43.5121,56.268,79.7309,30.2606,98.56,4.21555,6.245007,11.05084334,-0.9468,5.3856
15:18:15,23.4828,43.5052,56.439,79.7309,30.2548,98.56,4.20943,6.244303,10.71011016,-0.8568,4.9464
15:18:16,23.483,43.4916,56.581,79.7065,30.2445,98.56,4.19761,6.242626,10.82442247,-0.99,4.5504
15:18:17,23.4824,43.4884,56.73,79.7309,30.2422,98.56,4.20122,6.242163,11.48082647,-0.9,4.68
15:18:18,23.4824,43.5094,56.946,79.7553,30.2582,98.56,4.20902,6.244803,11.27977605,-0.9468,4.5504
15:18:19,23.4836,43.4833,57.207,79.7553,30.238,98.56,4.19885,6.241682,11.85057391,-0.5508,4.8564
15:18:20,23.486,43.4587,57.475,79.6821,30.2185,98.56,4.18742,6.2389,11.67967998,-0.5508,5.076
15:18:21,23.4859,43.4481,57.714,79.7797,30.2105,98.56,4.19485,6.237563,12.0239181,-0.1548,4.9464
15:18:22,23.4852,43.4589,57.908,79.7797,30.2189,98.56,4.20178,6.238847,11.73585258,-0.504,4.5072
15:18:23,23.4849,43.4594,58.064,79.7309,30.2194,98.56,4.20435,6.238882,12.68084186,-0.8136,4.9464
15:18:24,23.4844,43.4331,58.22,79.7553,30.1995,98.56,4.18947,6.235495,13.05463071,-0.8136,4.8132
15:18:25,23.4847,43.4361,58.406,79.7797,30.2017,98.56,4.1847,6.235932,13.34182024,-0.8136,4.8996
15:18:26,23.4843,43.4324,58.637,79.8041,30.199,98.56,4.18589,6.235415,14.23620938,-0.198,5.2092
15:18:27,23.4846,43.4955,58.883,79.7797,30.2469,98.56,4.18198,6.24343,14.3213454,-0.4608,4.8564
15:18:28,23.4845,43.493,59.129,79.8041,30.2451,98.56,4.19056,6.243127,14.84233147,-0.6804,4.77
15:18:29,23.4831,43.5108,59.338,79.8041,30.2591,98.56,4.19147,6.245197,15.19114302,-0.6804,4.7268
15:18:30,23.4823,43.4843,59.539,79.7797,30.2391,98.56,4.19361,6.241763,15.5096101,-0.4608,4.5936
15:18:31,23.4828,43.4685,59.725,79.8041,30.2269,98.56,4.19043,6.239846,16.15041841,-0.5508,4.77
15:18:32,23.4826,43.4438,59.897,79.8285,30.2082,98.56,4.18999,6.236708,16.79091514,-0.3312,4.5936
15:18:33,23.4828,43.4425,60.061,79.8285,30.2071,98.56,4.18036,6.236584,17.6402844,-0.5508,4.68
15:18:34,23.4828,43.443,60.27,79.7553,30.2075,93.46,4.18408,6.236655,18.55410339,-0.9468,4.68
15:18:35,23.4828,43.4275,60.568,79.8041,30.1957,96.95,4.18078,6.234721,18.73067126,-0.4608,4.4604
15:18:36,23.4829,43.4262,60.888,79.8285,30.1946,98.56,4.17983,6.234579,19.91587112,-0.6804,4.8132
15:18:37,23.4817,43.4266,61.134,79.8529,30.1953,98.56,4.18957,6.23449,20.27460986,-0.8136,4.9464
15:18:38,23.4824,43.4251,61.275,79.8529,30.194,98.56,4.19688,6.23441,20.5729693,-0.4608,4.5936
15:18:39,23.4826,43.4324,61.372,79.8041,30.1995,98.56,4.17995,6.235354,21.77483515,-0.594,4.8996
15:18:40,23.4833,43.4255,61.469,79.8041,30.194,98.56,4.17059,6.23457,22.58911965,-0.504,4.8132
15:18:41,23.4822,43.4327,61.693,79.8285,30.1998,98.56,4.1788,6.235346,23.44071771,-0.6372,4.5072
15:18:42,23.4824,43.4071,62.028,79.8285,30.1803,98.56,4.19274,6.232164,23.80843556,-0.0216,4.1976
15:18:43,23.4819,43.4033,62.408,79.9017,30.1776,98.56,4.2028,6.231648,24.85226632,-0.1548,4.4172
15:18:44,23.4805,43.4279,62.691,79.9261,30.1967,98.56,4.19175,6.234589,25.5640619,-0.4176,4.4604
15:18:45,23.4806,43.4163,62.81,79.8529,30.1878,98.56,4.18866,6.233136,26.24688952,-0.2412,4.6368
15:18:46,23.4816,43.4086,62.832,79.8773,30.1817,98.56,4.18383,6.23229,26.93632437,-0.2844,4.4604
15:18:47,23.4829,43.4168,62.929,79.8529,30.1876,98.56,4.1836,6.233502,27.21946109,-0.2844,4.5072
15:18:48,23.4819,43.4428,63.175,79.8529,30.2076,98.56,4.18544,6.236666,28.61227857,-0.99,4.374
15:18:49,23.4795,43.485,63.517,79.8773,30.2405,98.56,4.16662,6.241703,29.15408692,-0.9,4.4172
15:18:50,23.4772,43.4883,63.86,79.8529,30.2437,98.56,4.1596,6.241855,29.73307376,-0.1548,4.3308
15:18:51,23.4731,43.4844,64.113,79.8773,30.242,98.56,4.1912,6.240866,30.77046382,-0.1116,4.5504
15:18:52,23.471,43.4819,64.246,79.8529,30.2407,98.56,4.19738,6.240286,31.19551155,-0.198,4.4172
15:18:53,23.4703,43.5258,64.358,79.8529,30.2743,98.56,4.17389,6.245744,31.61978585,-0.594,4.284
15:18:54,23.4703,43.5013,64.522,79.9017,30.2557,98.56,4.15891,6.242667,33.04379993,-0.4608,4.6368
15:18:55,23.47,43.5003,64.79,79.8285,30.255,98.56,4.16004,6.242516,33.04379993,0.0648,4.2408
15:18:56,23.4677,43.5073,65.088,79.7797,30.2611,98.56,4.17927,6.243122,33.58132243,-0.2412,3.9348
15:18:57,23.4652,43.5075,65.356,79.8285,30.262,98.56,4.18433,6.242846,34.79765784,-0.0648,4.4172
15:18:58,23.4613,43.5388,65.542,79.8773,30.287,92.92,4.16844,6.246325,35.51809229,-0.0216,4.1112
15:18:59,23.4608,43.5498,65.69,79.8529,30.2955,96.73,4.16714,6.247654,35.72390649,-0.2412,3.9348
15:19:00,23.4604,43.5298,65.846,79.9261,30.2804,98.56,4.18205,6.245094,36.34742067,-0.4176,3.8916
15:19:01,23.462,43.5082,66.017,79.9017,30.2635,98.56,4.17168,6.24257,36.97596854,-0.1548,4.0644
15:19:02,23.4607,43.5378,66.286,79.9505,30.2864,98.56,4.14959,6.246165,38.10321275,-0.0216,4.4172
15:19:03,23.4584,43.5418,66.614,79.9261,30.2902,98.56,4.16051,6.246388,38.31905554,-0.0216,4.0212
15:19:04,23.4568,43.5285,66.904,79.9505,30.2805,98.56,4.16317,6.244533,39.50607269,-0.0216,4.4172
15:19:05,23.4554,43.5367,67.098,79.9749,30.2872,98.56,4.15724,6.245389,40.12370157,0.1116,4.374
15:19:06,23.4529,43.5294,67.239,79.9505,30.2824,98.56,4.16242,6.244167,40.67443014,-0.2844,4.2408
15:19:07,23.4456,43.5552,67.388,79.9261,30.3043,98.56,4.15985,6.246522,40.71070195,-0.1548,4.1976
15:19:08,23.4247,43.5413,67.619,79.9261,30.3,98.56,4.16046,6.242153,41.79289332,0.1116,4.374
15:19:09,23.4163,43.5714,67.887,79.9505,30.3255,98.56,4.15791,6.244918,42.28044199,0.1116,4.5936
15:19:10,23.3809,43.5876,68.14,79.9505,30.3485,98.56,4.15259,6.242528,42.96566755,0.1116,4.4172
15:19:11,23.3654,43.5965,68.385,79.9261,30.3601,98.56,4.14733,6.241735,43.46568354,0.0648,4.5072
15:19:12,23.3498,43.5978,68.593,79.9993,30.3658,98.56,4.14704,6.239961,44.0846197,-0.0216,4.3308
15:19:13,23.3334,43.5997,68.787,79.9993,30.3722,98.56,4.15043,6.238152,44.7520392,0.1116,4.284
15:19:14,23.2399,43.6133,68.973,80.0237,30.4108,98.56,4.15355,6.228173,45.18611863,-0.2844,4.284
15:19:15,23.1758,43.6201,69.159,79.9749,30.4353,98.56,4.13918,6.221022,46.02476617,-0.0216,4.68
15:19:16,23.1613,43.602,69.382,79.9749,30.4259,98.56,4.12348,6.216954,46.55209973,-0.0216,4.1976
15:19:17,23.1547,43.5818,69.651,79.9749,30.4124,98.56,4.10837,6.213599,47.24978819,-0.0216,4.4604
15:19:18,23.1523,43.5632,69.926,80.0482,30.399,98.56,4.10028,6.210992,47.87130642,-0.0216,4.7268
15:19:19,23.15,43.5857,70.127,80.1214,30.4168,98.56,4.08501,6.213528,48.54189222,0.1116,4.1976
15:19:20,23.1488,43.6199,70.254,80.097,30.4433,98.56,4.08169,6.217676,49.43951992,0.1116,4.3308
15:19:21,23.1478,43.6055,70.425,80.1702,30.4326,98.56,4.09286,6.215753,50.26417446,0.1116,4.8132
15:19:22,23.1503,43.6014,70.671,80.1946,30.4287,92.77,4.09893,6.215567,50.52661763,0.1116,4.4604
15:19:23,23.1409,43.614,70.947,80.2434,30.4412,96.63,4.09085,6.215985,51.23494601,0.1116,4.3308
15:19:24,23.1344,43.6284,71.178,80.2434,30.4541,98.56,4.07152,6.216991,52.45923351,0.1116,4.6368
15:19:25,23.1285,43.6466,71.319,80.219,30.4698,98.56,4.0812,6.218532,52.54959646,0.0216,4.374
15:19:26,23.1261,43.6484,71.461,80.2434,30.4718,98.56,4.08723,6.218461,53.48296748,0.0216,4.4604
15:19:27,23.1275,43.6648,71.669,80.2434,30.4839,98.56,4.08086,6.220696,54.52807838,-0.0216,4.68
15:19:28,23.123,43.6612,71.959,80.1946,30.4825,98.56,4.08136,6.219699,54.52807838,0.1116,4.5504
15:19:29,23.1227,43.6604,72.25,80.2434,30.4821,98.56,4.07905,6.219583,55.70220694,0.1116,4.5504
15:19:30,23.1188,43.685,72.459,80.2678,30.5019,98.56,4.08248,6.222183,56.50770109,-0.0216,4.8132
15:19:31,23.1167,43.6812,72.586,80.2678,30.4997,98.56,4.0766,6.221453,57.22469431,0.1116,4.5504
15:19:32,23.1156,43.6645,72.689,80.2922,30.4873,98.56,4.08328,6.219227,57.4284694,0.1116,4.1976
15:19:33,23.1181,43.6836,72.89,80.2922,30.501,98.56,4.08879,6.221943,58.64502929,0.0648,4.4604
15:19:34,23.1153,43.7224,73.173,80.2922,30.5315,98.56,4.09318,6.226459,59.07937628,0.1116,4.5504
15:19:35,23.1082,43.7132,73.464,80.2678,30.5266,98.56,4.09648,6.224428,60.35653831,0.0648,4.7268
15:19:36,23.1054,43.7163,73.695,80.2922,30.5298,98.56,4.09435,6.224482,61.1587957,0.1116,4.8564
15:19:37,23.105,43.7277,73.843,80.2922,30.5386,98.56,4.09301,6.225871,61.50755224,0.0648,4.5504
15:19:38,23.1031,43.7462,73.97,80.2922,30.5533,98.56,4.08908,6.227956,61.98199263,0.0648,4.5072
15:19:39,23.1067,43.7526,74.156,80.2922,30.5571,98.56,4.08147,6.229203,62.94873969,0.0648,4.8564
15:19:40,23.1056,43.724,74.44,80.2922,30.5356,98.56,4.08353,6.225507,64.2687021,-0.0216,4.77
15:19:41,23.0974,43.7039,74.723,80.2922,30.5228,98.56,4.09434,6.22198,65.45564951,0.1116,4.7268
15:19:42,23.0922,43.6942,74.909,80.2678,30.517,98.56,4.0803,6.220128,65.79439349,0.1116,4.374
